[
    {
        "stop_id": "1083",
        "stop_name": "Górczyn PKM",
        "stop_lat": 52.38183978,
        "stop_lon": 16.88145336,
        "zone_id": "A",
        "stop_code": null
    },
    {
        "stop_id": "2678",
        "stop_name": "Szczodrzykowo/Ogrodowa",
        "stop_lat": 52.28342147,
        "stop_lon": 17.10697639,
        "zone_id": "C",
        "stop_code": null
    },
    {
        "stop_id": "742",
        "stop_name": "Ostroroga",
        "stop_lat": 52.40032928,
        "stop_lon": 16.88184425,
        "zone_id": "A",
        "stop_code": null
    },
    {
        "stop_id": "420",
        "stop_name": "Kresowa",
        "stop_lat": 52.46863971,
        "stop_lon": 16.94742481,
        "zone_id": "A",
        "stop_code": null
    },
    {
        "stop_id": "2186",
        "stop_name": "Żerniki/Skrzyżowanie",
        "stop_lat": 52.3268396556,
        "stop_lon": 17.0426260111,
        "zone_id": "B",
        "stop_code": null
    },
    {
        "stop_id": "355",
        "stop_name": "Sucholeska",
        "stop_lat": 52.46233843,
        "stop_lon": 16.86888462,
        "zone_id": "A",
        "stop_code": null
    },
    {
        "stop_id": "3196",
        "stop_name": "Kórnicka",
        "stop_lat": 52.3995855285,
        "stop_lon": 16.9516899055,
        "zone_id": "A",
        "stop_code": null
    },
    {
        "stop_id": "2245",
        "stop_name": "Trzek/Topolowa",
        "stop_lat": 52.3474908081,
        "stop_lon": 17.1532634638,
        "zone_id": "B",
        "stop_code": null
    },
    {
        "stop_id": "487",
        "stop_name": "Serbska",
        "stop_lat": 52.43249322,
        "stop_lon": 16.94660842,
        "zone_id": "A",
        "stop_code": null
    },
    {
        "stop_id": "494",
        "stop_name": "Połabska",
        "stop_lat": 52.43616363,
        "stop_lon": 16.93084788,
        "zone_id": "A",
        "stop_code": null
    },
    {
        "stop_id": "2040",
        "stop_name": "Tarnowo Pdg/Karolewo I",
        "stop_lat": 52.4691534857,
        "stop_lon": 16.6846222807,
        "zone_id": "C",
        "stop_code": null
    },
    {
        "stop_id": "1652",
        "stop_name": "Termy Maltańskie",
        "stop_lat": 52.40552283,
        "stop_lon": 16.97593993,
        "zone_id": "A",
        "stop_code": null
    },
    {
        "stop_id": "4136",
        "stop_name": "Maczka",
        "stop_lat": 52.4237505141,
        "stop_lon": 16.9134678163,
        "zone_id": "A",
        "stop_code": null
    },
    {
        "stop_id": "2418",
        "stop_name": "Swarzędz/Rynek",
        "stop_lat": 52.410587,
        "stop_lon": 17.075667,
        "zone_id": "B",
        "stop_code": null
    },
    {
        "stop_id": "601",
        "stop_name": "Łupowska",
        "stop_lat": 52.43528238,
        "stop_lon": 16.8301995,
        "zone_id": "A",
        "stop_code": null
    },
    {
        "stop_id": "4291",
        "stop_name": "Trzek/Wiśniowa",
        "stop_lat": 52.354271,
        "stop_lon": 17.17231,
        "zone_id": "B",
        "stop_code": null
    },
    {
        "stop_id": "2571",
        "stop_name": "M. Goślina/Modrzewiowa",
        "stop_lat": 52.56645689,
        "stop_lon": 17.00253751,
        "zone_id": "C",
        "stop_code": null
    },
    {
        "stop_id": "2449",
        "stop_name": "Paczkowo/Szkoła (Dworska)",
        "stop_lat": 52.40222,
        "stop_lon": 17.158925,
        "zone_id": "C",
        "stop_code": null
    },
    {
        "stop_id": "2047",
        "stop_name": "Tarnowo Pdg/Centrum",
        "stop_lat": 52.46425893,
        "stop_lon": 16.66390116,
        "zone_id": "C",
        "stop_code": null
    },
    {
        "stop_id": "1220",
        "stop_name": "Światopełka",
        "stop_lat": 52.40880751,
        "stop_lon": 17.02472931,
        "zone_id": "A",
        "stop_code": null
    },
    {
        "stop_id": "1532",
        "stop_name": "Pokrzywno",
        "stop_lat": 52.35077851,
        "stop_lon": 16.98206198,
        "zone_id": "A",
        "stop_code": null
    },
    {
        "stop_id": "1757",
        "stop_name": "Głuchowo/Stawna",
        "stop_lat": 52.3465437186,
        "stop_lon": 16.7688141799,
        "zone_id": "C",
        "stop_code": null
    },
    {
        "stop_id": "1856",
        "stop_name": "Kiekrz/Czereśniowa",
        "stop_lat": 52.49878349,
        "stop_lon": 16.75042224,
        "zone_id": "B",
        "stop_code": null
    },
    {
        "stop_id": "2244",
        "stop_name": "Trzek/Topolowa",
        "stop_lat": 52.3471931536,
        "stop_lon": 17.1537947361,
        "zone_id": "B",
        "stop_code": null
    },
    {
        "stop_id": "29",
        "stop_name": "Szymanowskiego",
        "stop_lat": 52.46037103,
        "stop_lon": 16.91693825,
        "zone_id": "A",
        "stop_code": null
    },
    {
        "stop_id": "1956",
        "stop_name": "Przeźmierowo/Wiadukt",
        "stop_lat": 52.43541846,
        "stop_lon": 16.7863166501,
        "zone_id": "B",
        "stop_code": null
    },
    {
        "stop_id": "1169",
        "stop_name": "Urwista",
        "stop_lat": 52.42305377,
        "stop_lon": 16.98316608,
        "zone_id": "A",
        "stop_code": null
    },
    {
        "stop_id": "1469",
        "stop_name": "Piłsudskiego",
        "stop_lat": 52.39177491,
        "stop_lon": 16.95305409,
        "zone_id": "A",
        "stop_code": null
    },
    {
        "stop_id": "2285",
        "stop_name": "Mielno/Lisia",
        "stop_lat": 52.48946893,
        "stop_lon": 17.07189767,
        "zone_id": "C",
        "stop_code": null
    },
    {
        "stop_id": "1635",
        "stop_name": "Rezerwat Morasko",
        "stop_lat": 52.48793557,
        "stop_lon": 16.89745065,
        "zone_id": "A",
        "stop_code": null
    },
    {
        "stop_id": "3096",
        "stop_name": "Luboń/Zespół Szkół",
        "stop_lat": 52.3482935634,
        "stop_lon": 16.8972492541,
        "zone_id": "B",
        "stop_code": null
    },
    {
        "stop_id": "3087",
        "stop_name": "Lisówki/DPS",
        "stop_lat": 52.332474,
        "stop_lon": 16.646971,
        "zone_id": "C",
        "stop_code": null
    },
    {
        "stop_id": "2361",
        "stop_name": "Swarzędz/Os. Kościuszkowców",
        "stop_lat": 52.421038,
        "stop_lon": 17.081404,
        "zone_id": "B",
        "stop_code": null
    },
    {
        "stop_id": "2403",
        "stop_name": "Gortatowo/Dożynkowa",
        "stop_lat": 52.424457,
        "stop_lon": 17.101952,
        "zone_id": "B",
        "stop_code": null
    },
    {
        "stop_id": "382",
        "stop_name": "Os. Sobieskiego",
        "stop_lat": 52.46369321,
        "stop_lon": 16.91643409,
        "zone_id": "A",
        "stop_code": null
    },
    {
        "stop_id": "146",
        "stop_name": "Łomżyńska",
        "stop_lat": 52.40963103,
        "stop_lon": 16.98519604,
        "zone_id": "A",
        "stop_code": null
    },
    {
        "stop_id": "768",
        "stop_name": "Szamotulska",
        "stop_lat": 52.40468909,
        "stop_lon": 16.88323699,
        "zone_id": "A",
        "stop_code": null
    },
    {
        "stop_id": "2937",
        "stop_name": "Kruszewnia/Złotopolska",
        "stop_lat": 52.376198,
        "stop_lon": 17.102188,
        "zone_id": "C",
        "stop_code": null
    },
    {
        "stop_id": "2522",
        "stop_name": "Swarzędz/Pogodna/Średzka",
        "stop_lat": 52.400535,
        "stop_lon": 17.084266,
        "zone_id": "B",
        "stop_code": null
    },
    {
        "stop_id": "1821",
        "stop_name": "Pawłowice/Pawłowicka",
        "stop_lat": 52.48787796,
        "stop_lon": 16.79874279,
        "zone_id": "B",
        "stop_code": null
    },
    {
        "stop_id": "2627",
        "stop_name": "Kórnik/Bnin Osiedle",
        "stop_lat": 52.22284217,
        "stop_lon": 17.08695262,
        "zone_id": "C",
        "stop_code": null
    },
    {
        "stop_id": "3869",
        "stop_name": "Witkowice/Gorgoszewo Skrzyżowanie ",
        "stop_lat": 52.481874,
        "stop_lon": 16.525542,
        "zone_id": "C",
        "stop_code": null
    },
    {
        "stop_id": "485",
        "stop_name": "Serbska",
        "stop_lat": 52.43134374,
        "stop_lon": 16.94755324,
        "zone_id": "A",
        "stop_code": null
    },
    {
        "stop_id": "2333",
        "stop_name": "Zimin/Nowy Świat Centrum",
        "stop_lat": 52.29890012,
        "stop_lon": 17.17537681,
        "zone_id": "B",
        "stop_code": null
    },
    {
        "stop_id": "620",
        "stop_name": "Ogrody",
        "stop_lat": 52.41690676,
        "stop_lon": 16.88180946,
        "zone_id": "A",
        "stop_code": null
    },
    {
        "stop_id": "1614",
        "stop_name": "Os. Czecha I",
        "stop_lat": 52.38248732,
        "stop_lon": 16.98194369,
        "zone_id": "A",
        "stop_code": null
    },
    {
        "stop_id": "1607",
        "stop_name": "Niezłomnych",
        "stop_lat": 52.40302306,
        "stop_lon": 16.92083962,
        "zone_id": "A",
        "stop_code": null
    },
    {
        "stop_id": "1885",
        "stop_name": "Rokietnica/Mickiewicza",
        "stop_lat": 52.51592091,
        "stop_lon": 16.73946216,
        "zone_id": "B",
        "stop_code": null
    },
    {
        "stop_id": "743",
        "stop_name": "Ostroroga",
        "stop_lat": 52.40074739,
        "stop_lon": 16.88245787,
        "zone_id": "A",
        "stop_code": null
    },
    {
        "stop_id": "964",
        "stop_name": "Komorniki/Lubońska",
        "stop_lat": 52.3391737668,
        "stop_lon": 16.834721458,
        "zone_id": "B",
        "stop_code": null
    },
    {
        "stop_id": "282",
        "stop_name": "Złotniki/Łagiewnicka",
        "stop_lat": 52.49147815,
        "stop_lon": 16.84660621,
        "zone_id": "B",
        "stop_code": null
    },
    {
        "stop_id": "1613",
        "stop_name": "Dziadoszańska",
        "stop_lat": 52.37764991,
        "stop_lon": 16.97101296,
        "zone_id": "A",
        "stop_code": null
    },
    {
        "stop_id": "2754",
        "stop_name": "Gądki/Spedycyjna",
        "stop_lat": 52.31033026,
        "stop_lon": 17.05249069,
        "zone_id": "B",
        "stop_code": null
    },
    {
        "stop_id": "1948",
        "stop_name": "Przeźmierowo/Folwarczna",
        "stop_lat": 52.426808,
        "stop_lon": 16.791981,
        "zone_id": "B",
        "stop_code": null
    },
    {
        "stop_id": "2515",
        "stop_name": "Rabowice/Bukowa",
        "stop_lat": 52.390684,
        "stop_lon": 17.119096,
        "zone_id": "C",
        "stop_code": null
    },
    {
        "stop_id": "636",
        "stop_name": "Zgorzelecka",
        "stop_lat": 52.41207178,
        "stop_lon": 16.85803448,
        "zone_id": "A",
        "stop_code": null
    },
    {
        "stop_id": "2974",
        "stop_name": "Borówiec/Kurkowa",
        "stop_lat": 52.2811997299,
        "stop_lon": 17.0208586051,
        "zone_id": "B",
        "stop_code": null
    },
    {
        "stop_id": "2531",
        "stop_name": "Rabowice/Świerkowa",
        "stop_lat": 52.377189,
        "stop_lon": 17.108848,
        "zone_id": "C",
        "stop_code": null
    },
    {
        "stop_id": "329",
        "stop_name": "Suchy Las/Promienista",
        "stop_lat": 52.47816263,
        "stop_lon": 16.86043085,
        "zone_id": "B",
        "stop_code": null
    },
    {
        "stop_id": "974",
        "stop_name": "Luboń/Kołłątaja",
        "stop_lat": 52.3424935544,
        "stop_lon": 16.8619491625,
        "zone_id": "B",
        "stop_code": null
    },
    {
        "stop_id": "1629",
        "stop_name": "Głogowska/Hetmańska",
        "stop_lat": 52.39053333,
        "stop_lon": 16.89344725,
        "zone_id": "A",
        "stop_code": null
    },
    {
        "stop_id": "1487",
        "stop_name": "Lubuszańska",
        "stop_lat": 52.3801304409,
        "stop_lon": 16.9743280077,
        "zone_id": "A",
        "stop_code": null
    },
    {
        "stop_id": "1208",
        "stop_name": "Czerwonacka",
        "stop_lat": 52.4352924338,
        "stop_lon": 16.9803048209,
        "zone_id": "A",
        "stop_code": null
    },
    {
        "stop_id": "2502",
        "stop_name": "Wierzenica/Mechowo",
        "stop_lat": 52.440742,
        "stop_lon": 17.055904,
        "zone_id": "B",
        "stop_code": null
    },
    {
        "stop_id": "1072",
        "stop_name": "Taczanowskiego",
        "stop_lat": 52.39158543,
        "stop_lon": 16.86771312,
        "zone_id": "A",
        "stop_code": null
    },
    {
        "stop_id": "3622",
        "stop_name": "Kalinowa",
        "stop_lat": 52.3690518989,
        "stop_lon": 16.9036540366,
        "zone_id": "A",
        "stop_code": null
    },
    {
        "stop_id": "1508",
        "stop_name": "Szwajcarska Szpital",
        "stop_lat": 52.38987596,
        "stop_lon": 16.99253837,
        "zone_id": "A",
        "stop_code": null
    },
    {
        "stop_id": "3844",
        "stop_name": "Meissnera",
        "stop_lat": 52.4188519375,
        "stop_lon": 16.8654171899,
        "zone_id": "A",
        "stop_code": null
    },
    {
        "stop_id": "2004",
        "stop_name": "Lusowo/Otowska",
        "stop_lat": 52.4259554,
        "stop_lon": 16.71505216,
        "zone_id": "C",
        "stop_code": null
    },
    {
        "stop_id": "3980",
        "stop_name": "Spławska",
        "stop_lat": 52.3571048734,
        "stop_lon": 17.0003898646,
        "zone_id": "A",
        "stop_code": null
    },
    {
        "stop_id": "2467",
        "stop_name": "Paczkowo/Altanowa",
        "stop_lat": 52.40649,
        "stop_lon": 17.165633,
        "zone_id": "C",
        "stop_code": null
    },
    {
        "stop_id": "1026",
        "stop_name": "Śmiełowska",
        "stop_lat": 52.37388768,
        "stop_lon": 16.87695201,
        "zone_id": "A",
        "stop_code": null
    },
    {
        "stop_id": "1478",
        "stop_name": "Os. Lecha I",
        "stop_lat": 52.38781262,
        "stop_lon": 16.96782254,
        "zone_id": "A",
        "stop_code": null
    },
    {
        "stop_id": "433",
        "stop_name": "Rdestowa",
        "stop_lat": 52.4899311,
        "stop_lon": 16.94171117,
        "zone_id": "A",
        "stop_code": null
    },
    {
        "stop_id": "1701",
        "stop_name": "Rondo Skubiszewskiego",
        "stop_lat": 52.39013664,
        "stop_lon": 16.85434577,
        "zone_id": "A",
        "stop_code": null
    },
    {
        "stop_id": "729",
        "stop_name": "Rondo Skubiszewskiego",
        "stop_lat": 52.3899356513,
        "stop_lon": 16.8529470488,
        "zone_id": "A",
        "stop_code": null
    },
    {
        "stop_id": "1554",
        "stop_name": "Spławska",
        "stop_lat": 52.35671251,
        "stop_lon": 17.00029865,
        "zone_id": "A",
        "stop_code": null
    },
    {
        "stop_id": "3748",
        "stop_name": "Dachowa/Wiatrakowa",
        "stop_lat": 52.30233935,
        "stop_lon": 17.08804011,
        "zone_id": "B",
        "stop_code": null
    },
    {
        "stop_id": "734",
        "stop_name": "Stadion Miejski",
        "stop_lat": 52.396131,
        "stop_lon": 16.86241661,
        "zone_id": "A",
        "stop_code": null
    },
    {
        "stop_id": "1305",
        "stop_name": "Kamionki/Lotnicza",
        "stop_lat": 52.28496035,
        "stop_lon": 17.00012254,
        "zone_id": "B",
        "stop_code": null
    },
    {
        "stop_id": "516",
        "stop_name": "Rzepeckiej",
        "stop_lat": 52.454977,
        "stop_lon": 16.88268237,
        "zone_id": "A",
        "stop_code": null
    },
    {
        "stop_id": "2852",
        "stop_name": "Gałczyńskiego",
        "stop_lat": 52.4065310526,
        "stop_lon": 16.8507924445,
        "zone_id": "A",
        "stop_code": null
    },
    {
        "stop_id": "2665",
        "stop_name": "Kórnik/Parkowa Instytut",
        "stop_lat": 52.24508215,
        "stop_lon": 17.09618297,
        "zone_id": "C",
        "stop_code": null
    },
    {
        "stop_id": "3582",
        "stop_name": "Lusówko/Pętla",
        "stop_lat": 52.4275463,
        "stop_lon": 16.6544373,
        "zone_id": "C",
        "stop_code": null
    },
    {
        "stop_id": "703",
        "stop_name": "Zakrzewo/Świerkowa",
        "stop_lat": 52.39847195,
        "stop_lon": 16.71633138,
        "zone_id": "C",
        "stop_code": null
    },
    {
        "stop_id": "3104",
        "stop_name": "M. Goślina/Polna",
        "stop_lat": 52.5785668184,
        "stop_lon": 17.0180399105,
        "zone_id": "C",
        "stop_code": null
    },
    {
        "stop_id": "2983",
        "stop_name": "Złotniki/Os. Grzybowe PKM",
        "stop_lat": 52.4842624248,
        "stop_lon": 16.8448008738,
        "zone_id": "B",
        "stop_code": null
    },
    {
        "stop_id": "339",
        "stop_name": "Łęgowskiego Wiadukt",
        "stop_lat": 52.46319644,
        "stop_lon": 16.88930356,
        "zone_id": "A",
        "stop_code": null
    },
    {
        "stop_id": "1794",
        "stop_name": "Rosnowo/",
        "stop_lat": 52.32523906,
        "stop_lon": 16.78229469,
        "zone_id": "C",
        "stop_code": null
    },
    {
        "stop_id": "2315",
        "stop_name": "Krerowo/Pałac",
        "stop_lat": 52.2959357,
        "stop_lon": 17.19473784,
        "zone_id": "B",
        "stop_code": null
    },
    {
        "stop_id": "362",
        "stop_name": "Hulewiczów",
        "stop_lat": 52.4565911,
        "stop_lon": 16.89792521,
        "zone_id": "A",
        "stop_code": null
    },
    {
        "stop_id": "3206",
        "stop_name": "Zborowo/",
        "stop_lat": 52.372276,
        "stop_lon": 16.631526,
        "zone_id": "C",
        "stop_code": null
    },
    {
        "stop_id": "799",
        "stop_name": "Urząd Wojewódzki",
        "stop_lat": 52.41110325,
        "stop_lon": 16.91903241,
        "zone_id": "A",
        "stop_code": null
    },
    {
        "stop_id": "1571",
        "stop_name": "Tarczowa",
        "stop_lat": 52.37812758,
        "stop_lon": 16.895722,
        "zone_id": "A",
        "stop_code": null
    },
    {
        "stop_id": "2887",
        "stop_name": "Poklatki/Osiedle",
        "stop_lat": 52.32948668,
        "stop_lon": 17.20348518,
        "zone_id": "B",
        "stop_code": null
    },
    {
        "stop_id": "777",
        "stop_name": "Marszałkowska",
        "stop_lat": 52.4007296784,
        "stop_lon": 16.8641480394,
        "zone_id": "A",
        "stop_code": null
    },
    {
        "stop_id": "325",
        "stop_name": "Suchy Las/Os. Przylesie",
        "stop_lat": 52.47331876,
        "stop_lon": 16.89790978,
        "zone_id": "B",
        "stop_code": null
    },
    {
        "stop_id": "429",
        "stop_name": "Umultowo",
        "stop_lat": 52.48196949,
        "stop_lon": 16.94361872,
        "zone_id": "A",
        "stop_code": null
    },
    {
        "stop_id": "1985",
        "stop_name": "Batorowo/Brzask",
        "stop_lat": 52.42271211,
        "stop_lon": 16.73215507,
        "zone_id": "C",
        "stop_code": null
    },
    {
        "stop_id": "3276",
        "stop_name": "Robakowo/Żernicka Magazyny",
        "stop_lat": 52.31448835,
        "stop_lon": 17.07164585,
        "zone_id": "B",
        "stop_code": null
    },
    {
        "stop_id": "3829",
        "stop_name": "Rokietnica/Węzeł Przesiadkowy",
        "stop_lat": 52.51114,
        "stop_lon": 16.75473,
        "zone_id": "B",
        "stop_code": null
    },
    {
        "stop_id": "4113",
        "stop_name": "Gruszczyn/Mechowska",
        "stop_lat": 52.4296028792,
        "stop_lon": 17.0706211088,
        "zone_id": "B",
        "stop_code": null
    },
    {
        "stop_id": "2086",
        "stop_name": "Ceradz Kościelny/Kościół",
        "stop_lat": 52.43754337,
        "stop_lon": 16.5924837,
        "zone_id": "C",
        "stop_code": null
    },
    {
        "stop_id": "1818",
        "stop_name": "Wilczak/Serbska",
        "stop_lat": 52.43074683,
        "stop_lon": 16.95159438,
        "zone_id": "A",
        "stop_code": null
    },
    {
        "stop_id": "2117",
        "stop_name": "Nad Krzesinką",
        "stop_lat": 52.3361875492,
        "stop_lon": 17.0085507972,
        "zone_id": "A",
        "stop_code": null
    },
    {
        "stop_id": "160",
        "stop_name": "Kórnicka",
        "stop_lat": 52.39901643,
        "stop_lon": 16.95348456,
        "zone_id": "A",
        "stop_code": null
    },
    {
        "stop_id": "3339",
        "stop_name": "Wysogotowo/Wierzbowa",
        "stop_lat": 52.41443217,
        "stop_lon": 16.77639599,
        "zone_id": "B",
        "stop_code": null
    },
    {
        "stop_id": "1802",
        "stop_name": "Szreniawa/Dworcowa",
        "stop_lat": 52.3178147185,
        "stop_lon": 16.7930608565,
        "zone_id": "C",
        "stop_code": null
    },
    {
        "stop_id": "2314",
        "stop_name": "Krerowo/Pałac",
        "stop_lat": 52.29549164,
        "stop_lon": 17.19476861,
        "zone_id": "B",
        "stop_code": null
    },
    {
        "stop_id": "1540",
        "stop_name": "Krzesiny Szkoła",
        "stop_lat": 52.34113996,
        "stop_lon": 16.99240829,
        "zone_id": "A",
        "stop_code": null
    },
    {
        "stop_id": "3237",
        "stop_name": "Konarzewo/Cmentarz",
        "stop_lat": 52.333233,
        "stop_lon": 16.703965,
        "zone_id": "C",
        "stop_code": null
    },
    {
        "stop_id": "1203",
        "stop_name": "Koziegłowy/Os. Leśne",
        "stop_lat": 52.45338643,
        "stop_lon": 16.99206042,
        "zone_id": "B",
        "stop_code": null
    },
    {
        "stop_id": "1113",
        "stop_name": "Słowiańska",
        "stop_lat": 52.42700176,
        "stop_lon": 16.92128023,
        "zone_id": "A",
        "stop_code": null
    },
    {
        "stop_id": "119",
        "stop_name": "27 Grudnia",
        "stop_lat": 52.40804,
        "stop_lon": 16.924212,
        "zone_id": "A",
        "stop_code": null
    },
    {
        "stop_id": "519",
        "stop_name": "Tułodzieckiej",
        "stop_lat": 52.45247637,
        "stop_lon": 16.88713569,
        "zone_id": "A",
        "stop_code": null
    },
    {
        "stop_id": "1596",
        "stop_name": "Pamiątkowa",
        "stop_lat": 52.38710002,
        "stop_lon": 16.91618859,
        "zone_id": "A",
        "stop_code": null
    },
    {
        "stop_id": "2136",
        "stop_name": "Koninko/Granatowa",
        "stop_lat": 52.306956,
        "stop_lon": 17.019884,
        "zone_id": "B",
        "stop_code": null
    },
    {
        "stop_id": "2555",
        "stop_name": "Garby Wielkie/Pętla",
        "stop_lat": 52.372285,
        "stop_lon": 17.074097,
        "zone_id": "C",
        "stop_code": null
    },
    {
        "stop_id": "3746",
        "stop_name": "Błażejewo/Os. Przylesie",
        "stop_lat": 52.21876218,
        "stop_lon": 17.07647835,
        "zone_id": "C",
        "stop_code": null
    },
    {
        "stop_id": "1308",
        "stop_name": "Kamionki/Łąkowa",
        "stop_lat": 52.28840088,
        "stop_lon": 16.98168661,
        "zone_id": "B",
        "stop_code": null
    },
    {
        "stop_id": "30",
        "stop_name": "Szymanowskiego",
        "stop_lat": 52.46039585,
        "stop_lon": 16.91715526,
        "zone_id": "A",
        "stop_code": null
    },
    {
        "stop_id": "1549",
        "stop_name": "Żerniki/Wieś",
        "stop_lat": 52.332515398,
        "stop_lon": 17.0575754228,
        "zone_id": "B",
        "stop_code": null
    },
    {
        "stop_id": "534",
        "stop_name": "Lutycka/Dojazd",
        "stop_lat": 52.44086417,
        "stop_lon": 16.90098902,
        "zone_id": "A",
        "stop_code": null
    },
    {
        "stop_id": "2007",
        "stop_name": "Lusowo/Swadzimska",
        "stop_lat": 52.43148097,
        "stop_lon": 16.70564404,
        "zone_id": "C",
        "stop_code": null
    },
    {
        "stop_id": "2281",
        "stop_name": "Kliny/Brzozowa",
        "stop_lat": 52.48984397,
        "stop_lon": 17.06003348,
        "zone_id": "C",
        "stop_code": null
    },
    {
        "stop_id": "3936",
        "stop_name": "Serbska",
        "stop_lat": 52.43150248,
        "stop_lon": 16.94578688,
        "zone_id": "A",
        "stop_code": null
    },
    {
        "stop_id": "916",
        "stop_name": "Luboń/Targowa",
        "stop_lat": 52.3383528026,
        "stop_lon": 16.8746259094,
        "zone_id": "B",
        "stop_code": null
    },
    {
        "stop_id": "2499",
        "stop_name": "Bogucin/Ligowiec",
        "stop_lat": 52.437711,
        "stop_lon": 17.03657,
        "zone_id": "B",
        "stop_code": null
    },
    {
        "stop_id": "1140",
        "stop_name": "Katedra",
        "stop_lat": 52.41027402,
        "stop_lon": 16.9478526,
        "zone_id": "A",
        "stop_code": null
    },
    {
        "stop_id": "35",
        "stop_name": "Żniwna",
        "stop_lat": 52.424766,
        "stop_lon": 16.92683326,
        "zone_id": "A",
        "stop_code": null
    },
    {
        "stop_id": "1782",
        "stop_name": "Komorniki/Nowa",
        "stop_lat": 52.3392549602,
        "stop_lon": 16.8157284739,
        "zone_id": "B",
        "stop_code": null
    },
    {
        "stop_id": "2297",
        "stop_name": "Karłowice/Pętla",
        "stop_lat": 52.49738903,
        "stop_lon": 17.10666672,
        "zone_id": "C",
        "stop_code": null
    },
    {
        "stop_id": "2508",
        "stop_name": "Jasin/Rabowicka I",
        "stop_lat": 52.400201,
        "stop_lon": 17.094302,
        "zone_id": "B",
        "stop_code": null
    },
    {
        "stop_id": "2617",
        "stop_name": "Kórnik/Reja",
        "stop_lat": 52.25294728,
        "stop_lon": 17.08219797,
        "zone_id": "C",
        "stop_code": null
    },
    {
        "stop_id": "2019",
        "stop_name": "Chyby/Cedrowa",
        "stop_lat": 52.4522397117,
        "stop_lon": 16.7746729326,
        "zone_id": "B",
        "stop_code": null
    },
    {
        "stop_id": "462",
        "stop_name": "Sarmacka",
        "stop_lat": 52.44701722,
        "stop_lon": 16.92777376,
        "zone_id": "A",
        "stop_code": null
    },
    {
        "stop_id": "1736",
        "stop_name": "Plewiska/Wołczyńska",
        "stop_lat": 52.37633758,
        "stop_lon": 16.82356938,
        "zone_id": "B",
        "stop_code": null
    },
    {
        "stop_id": "1633",
        "stop_name": "Komorniki/Nowa",
        "stop_lat": 52.33806808,
        "stop_lon": 16.81656776,
        "zone_id": "B",
        "stop_code": null
    },
    {
        "stop_id": "815",
        "stop_name": "Dębiec PKM",
        "stop_lat": 52.37100256,
        "stop_lon": 16.90161605,
        "zone_id": "A",
        "stop_code": null
    },
    {
        "stop_id": "3123",
        "stop_name": "Konarzewo/Dopiewska",
        "stop_lat": 52.3357364414,
        "stop_lon": 16.7084409881,
        "zone_id": "C",
        "stop_code": null
    },
    {
        "stop_id": "2841",
        "stop_name": "Luboń/Polna",
        "stop_lat": 52.3217137172,
        "stop_lon": 16.8736666678,
        "zone_id": "B",
        "stop_code": null
    },
    {
        "stop_id": "1756",
        "stop_name": "Głuchowo/Spokojna",
        "stop_lat": 52.3487174844,
        "stop_lon": 16.7718837531,
        "zone_id": "C",
        "stop_code": null
    },
    {
        "stop_id": "1542",
        "stop_name": "Krzesiny Wiadukt",
        "stop_lat": 52.33997827,
        "stop_lon": 16.99965642,
        "zone_id": "A",
        "stop_code": null
    },
    {
        "stop_id": "2757",
        "stop_name": "Dachowa/Kręta",
        "stop_lat": 52.30411754,
        "stop_lon": 17.08238061,
        "zone_id": "B",
        "stop_code": null
    },
    {
        "stop_id": "2466",
        "stop_name": "Paczkowo/Folwarczna",
        "stop_lat": 52.402753,
        "stop_lon": 17.163635,
        "zone_id": "C",
        "stop_code": null
    },
    {
        "stop_id": "3341",
        "stop_name": "Rumianek/Nowa II",
        "stop_lat": 52.46230133,
        "stop_lon": 16.6307977,
        "zone_id": "C",
        "stop_code": null
    },
    {
        "stop_id": "3625",
        "stop_name": "Luboń/Wschodnia ",
        "stop_lat": 52.3431159868,
        "stop_lon": 16.8820784789,
        "zone_id": "B",
        "stop_code": null
    },
    {
        "stop_id": "1442",
        "stop_name": "Nowowiejskiego",
        "stop_lat": 52.41482217,
        "stop_lon": 16.91967018,
        "zone_id": "A",
        "stop_code": null
    },
    {
        "stop_id": "1574",
        "stop_name": "Dmowskiego",
        "stop_lat": 52.38707166,
        "stop_lon": 16.89661949,
        "zone_id": "A",
        "stop_code": null
    },
    {
        "stop_id": "1502",
        "stop_name": "Piaśnicka/Kurlandzka",
        "stop_lat": 52.38435608,
        "stop_lon": 16.98674701,
        "zone_id": "A",
        "stop_code": null
    },
    {
        "stop_id": "1986",
        "stop_name": "Batorowo/Zakrzewska",
        "stop_lat": 52.42416276,
        "stop_lon": 16.71970134,
        "zone_id": "C",
        "stop_code": null
    },
    {
        "stop_id": "262",
        "stop_name": "Zielątkowo/Las",
        "stop_lat": 52.54622841,
        "stop_lon": 16.80014559,
        "zone_id": "C",
        "stop_code": null
    },
    {
        "stop_id": "914",
        "stop_name": "Luboń/Targowa",
        "stop_lat": 52.3395977753,
        "stop_lon": 16.875585151,
        "zone_id": "B",
        "stop_code": null
    },
    {
        "stop_id": "831",
        "stop_name": "Dębina",
        "stop_lat": 52.3776519,
        "stop_lon": 16.92680528,
        "zone_id": "A",
        "stop_code": null
    },
    {
        "stop_id": "4029",
        "stop_name": "Kościelna Tunel",
        "stop_lat": 52.4181135019,
        "stop_lon": 16.9062218526,
        "zone_id": "A",
        "stop_code": null
    },
    {
        "stop_id": "431",
        "stop_name": "Łopianowa",
        "stop_lat": 52.48680205,
        "stop_lon": 16.94262383,
        "zone_id": "A",
        "stop_code": null
    },
    {
        "stop_id": "950",
        "stop_name": "Wiry/Południowa",
        "stop_lat": 52.3175980974,
        "stop_lon": 16.8569168333,
        "zone_id": "B",
        "stop_code": null
    },
    {
        "stop_id": "2335",
        "stop_name": "Krzyżowniki/Boisko",
        "stop_lat": 52.30681188,
        "stop_lon": 17.13166349,
        "zone_id": "B",
        "stop_code": null
    },
    {
        "stop_id": "1351",
        "stop_name": "Starołęka Wielka",
        "stop_lat": 52.34158682,
        "stop_lon": 16.91753632,
        "zone_id": "A",
        "stop_code": null
    },
    {
        "stop_id": "332",
        "stop_name": "Suchy Las/Os. Jagodowe",
        "stop_lat": 52.47122847,
        "stop_lon": 16.86849302,
        "zone_id": "B",
        "stop_code": null
    },
    {
        "stop_id": "1858",
        "stop_name": "Rokietnica/Os. Kalinowe",
        "stop_lat": 52.50509003,
        "stop_lon": 16.74197876,
        "zone_id": "B",
        "stop_code": null
    },
    {
        "stop_id": "234",
        "stop_name": "Rondo Starołęka",
        "stop_lat": 52.38100558,
        "stop_lon": 16.94350054,
        "zone_id": "A",
        "stop_code": null
    },
    {
        "stop_id": "1720",
        "stop_name": "Poznań Główny",
        "stop_lat": 52.40302705,
        "stop_lon": 16.91507422,
        "zone_id": "A",
        "stop_code": null
    },
    {
        "stop_id": "1648",
        "stop_name": "Podjaryszki",
        "stop_lat": 52.33770437,
        "stop_lon": 17.01508632,
        "zone_id": "A",
        "stop_code": null
    },
    {
        "stop_id": "3706",
        "stop_name": "Biskupice/Przylesie",
        "stop_lat": 52.458252,
        "stop_lon": 17.166868,
        "zone_id": "C",
        "stop_code": null
    },
    {
        "stop_id": "739",
        "stop_name": "Grochowska",
        "stop_lat": 52.399141,
        "stop_lon": 16.87731,
        "zone_id": "A",
        "stop_code": null
    },
    {
        "stop_id": "205",
        "stop_name": "Żegrze II",
        "stop_lat": 52.38070268,
        "stop_lon": 16.96592129,
        "zone_id": "A",
        "stop_code": null
    },
    {
        "stop_id": "2923",
        "stop_name": "Trzaskowo/Wieś",
        "stop_lat": 52.53385286,
        "stop_lon": 17.02015061,
        "zone_id": "C",
        "stop_code": null
    },
    {
        "stop_id": "2124",
        "stop_name": "Jaryszki/Składowa",
        "stop_lat": 52.329919,
        "stop_lon": 17.016214,
        "zone_id": "B",
        "stop_code": null
    },
    {
        "stop_id": "1361",
        "stop_name": "Czernichowska ",
        "stop_lat": 52.34680123,
        "stop_lon": 16.91912018,
        "zone_id": "A",
        "stop_code": null
    },
    {
        "stop_id": "2226",
        "stop_name": "Szewce/Orzechowa",
        "stop_lat": 52.35880116,
        "stop_lon": 17.09609524,
        "zone_id": "B",
        "stop_code": null
    },
    {
        "stop_id": "399",
        "stop_name": "Stoińskiego",
        "stop_lat": 52.45021452,
        "stop_lon": 16.9271609,
        "zone_id": "A",
        "stop_code": null
    },
    {
        "stop_id": "4289",
        "stop_name": "Przeźmierowo/Cmentarz",
        "stop_lat": 52.416681622,
        "stop_lon": 16.7897108897,
        "zone_id": "B",
        "stop_code": null
    },
    {
        "stop_id": "2241",
        "stop_name": "Tanibórz/Wschód",
        "stop_lat": 52.35166947,
        "stop_lon": 17.146563,
        "zone_id": "B",
        "stop_code": null
    },
    {
        "stop_id": "4001",
        "stop_name": "Złotniki/Os. Grzybowe",
        "stop_lat": 52.4800720128,
        "stop_lon": 16.8577580145,
        "zone_id": "B",
        "stop_code": null
    },
    {
        "stop_id": "4243",
        "stop_name": "Tarnowo Pdg/Modrakowa",
        "stop_lat": 52.475208,
        "stop_lon": 16.655755,
        "zone_id": "C",
        "stop_code": null
    },
    {
        "stop_id": "1775",
        "stop_name": "Rondo Kaponiera",
        "stop_lat": 52.40837277,
        "stop_lon": 16.91274508,
        "zone_id": "A",
        "stop_code": null
    },
    {
        "stop_id": "3168",
        "stop_name": "Zalasewo/Transportowa",
        "stop_lat": 52.3812029919,
        "stop_lon": 17.0670792936,
        "zone_id": "B",
        "stop_code": null
    },
    {
        "stop_id": "3940",
        "stop_name": "Konarzewo/S5",
        "stop_lat": 52.3338958739,
        "stop_lon": 16.728924486,
        "zone_id": "C",
        "stop_code": null
    },
    {
        "stop_id": "3580",
        "stop_name": "Uniwersytet Ekonomiczny",
        "stop_lat": 52.4057383633,
        "stop_lon": 16.917363813,
        "zone_id": "A",
        "stop_code": null
    },
    {
        "stop_id": "58",
        "stop_name": "Ogrody",
        "stop_lat": 52.41705364,
        "stop_lon": 16.88246267,
        "zone_id": "A",
        "stop_code": null
    },
    {
        "stop_id": "2176",
        "stop_name": "Bolechowo-Os./Szkoła",
        "stop_lat": 52.54126436,
        "stop_lon": 16.974637,
        "zone_id": "C",
        "stop_code": null
    },
    {
        "stop_id": "1420",
        "stop_name": "Os. Bohaterów II Wojny Światowej",
        "stop_lat": 52.38345869,
        "stop_lon": 16.9470939,
        "zone_id": "A",
        "stop_code": null
    },
    {
        "stop_id": "1070",
        "stop_name": "Jugosłowiańska",
        "stop_lat": 52.39113996,
        "stop_lon": 16.86623906,
        "zone_id": "A",
        "stop_code": null
    },
    {
        "stop_id": "2501",
        "stop_name": "Janikowo/Szybowcowa",
        "stop_lat": 52.440061,
        "stop_lon": 17.044808,
        "zone_id": "B",
        "stop_code": null
    },
    {
        "stop_id": "3941",
        "stop_name": "Chomęcice/S5",
        "stop_lat": 52.3333364706,
        "stop_lon": 16.7350636324,
        "zone_id": "C",
        "stop_code": null
    },
    {
        "stop_id": "564",
        "stop_name": "Krajenecka",
        "stop_lat": 52.45472548,
        "stop_lon": 16.84320355,
        "zone_id": "A",
        "stop_code": null
    },
    {
        "stop_id": "3332",
        "stop_name": "Ceradz Dolny/Powstańców Wielkopolskich",
        "stop_lat": 52.42970493,
        "stop_lon": 16.58266345,
        "zone_id": "C",
        "stop_code": null
    },
    {
        "stop_id": "780",
        "stop_name": "Wojska Polskiego",
        "stop_lat": 52.42752069,
        "stop_lon": 16.89784314,
        "zone_id": "A",
        "stop_code": null
    },
    {
        "stop_id": "605",
        "stop_name": "Kołobrzeska",
        "stop_lat": 52.431073,
        "stop_lon": 16.83850712,
        "zone_id": "A",
        "stop_code": null
    },
    {
        "stop_id": "412",
        "stop_name": "Os. Zygmunta Starego",
        "stop_lat": 52.46028506,
        "stop_lon": 16.90835734,
        "zone_id": "A",
        "stop_code": null
    },
    {
        "stop_id": "161",
        "stop_name": "Kórnicka",
        "stop_lat": 52.39915535,
        "stop_lon": 16.95338012,
        "zone_id": "A",
        "stop_code": null
    },
    {
        "stop_id": "3119",
        "stop_name": "Trzek/Czereśniowa",
        "stop_lat": 52.3587731427,
        "stop_lon": 17.1524222827,
        "zone_id": "B",
        "stop_code": null
    },
    {
        "stop_id": "2806",
        "stop_name": "Arena",
        "stop_lat": 52.39776564,
        "stop_lon": 16.88880793,
        "zone_id": "A",
        "stop_code": null
    },
    {
        "stop_id": "1822",
        "stop_name": "Pawłowice/Pawłowicka",
        "stop_lat": 52.48798819,
        "stop_lon": 16.79877276,
        "zone_id": "B",
        "stop_code": null
    },
    {
        "stop_id": "1916",
        "stop_name": "Bytkowo/Pawłowicka",
        "stop_lat": 52.51791811,
        "stop_lon": 16.77704823,
        "zone_id": "B",
        "stop_code": null
    },
    {
        "stop_id": "2619",
        "stop_name": "Kórnik/Pl. Niepodległości",
        "stop_lat": 52.24845907,
        "stop_lon": 17.08762595,
        "zone_id": "C",
        "stop_code": null
    },
    {
        "stop_id": "2234",
        "stop_name": "Gowarzewo/Czereśniowa",
        "stop_lat": 52.35977963,
        "stop_lon": 17.13162877,
        "zone_id": "B",
        "stop_code": null
    },
    {
        "stop_id": "2028",
        "stop_name": "Kobylniki/Lipowa",
        "stop_lat": 52.4725984206,
        "stop_lon": 16.7485077727,
        "zone_id": "B",
        "stop_code": null
    },
    {
        "stop_id": "67",
        "stop_name": "Bukowska",
        "stop_lat": 52.41005213,
        "stop_lon": 16.88882572,
        "zone_id": "A",
        "stop_code": null
    },
    {
        "stop_id": "794",
        "stop_name": "Stróżyńskiego",
        "stop_lat": 52.45248704,
        "stop_lon": 16.90323914,
        "zone_id": "A",
        "stop_code": null
    },
    {
        "stop_id": "2660",
        "stop_name": "Biernatki/Dębiecka",
        "stop_lat": 52.2301879,
        "stop_lon": 17.10348849,
        "zone_id": "C",
        "stop_code": null
    },
    {
        "stop_id": "4194",
        "stop_name": "Daleka",
        "stop_lat": 52.3818699432,
        "stop_lon": 16.8916266224,
        "zone_id": "A",
        "stop_code": null
    },
    {
        "stop_id": "2215",
        "stop_name": "Czerwonak/Kręta",
        "stop_lat": 52.47530757,
        "stop_lon": 16.97947632,
        "zone_id": "B",
        "stop_code": null
    },
    {
        "stop_id": "2891",
        "stop_name": "Kleszczewo/Topolowa",
        "stop_lat": 52.33316611,
        "stop_lon": 17.17714019,
        "zone_id": "B",
        "stop_code": null
    },
    {
        "stop_id": "715",
        "stop_name": "Żonkilowa",
        "stop_lat": 52.3868266982,
        "stop_lon": 16.8182520173,
        "zone_id": "A",
        "stop_code": null
    },
    {
        "stop_id": "662",
        "stop_name": "Owcza",
        "stop_lat": 52.40697158,
        "stop_lon": 16.81894202,
        "zone_id": "A",
        "stop_code": null
    },
    {
        "stop_id": "301",
        "stop_name": "Suchy Las/Szkoła",
        "stop_lat": 52.47636225,
        "stop_lon": 16.87228166,
        "zone_id": "B",
        "stop_code": null
    },
    {
        "stop_id": "197",
        "stop_name": "Bystra",
        "stop_lat": 52.3709991833,
        "stop_lon": 16.9345268592,
        "zone_id": "A",
        "stop_code": null
    },
    {
        "stop_id": "2575",
        "stop_name": "M. Goślina/Cmentarz",
        "stop_lat": 52.57121436,
        "stop_lon": 17.00788783,
        "zone_id": "C",
        "stop_code": null
    },
    {
        "stop_id": "3850",
        "stop_name": "Rosnówko/Wichrowa",
        "stop_lat": 52.3066573524,
        "stop_lon": 16.7624684276,
        "zone_id": "C",
        "stop_code": null
    },
    {
        "stop_id": "2077",
        "stop_name": "Lusówko/Dopiewska",
        "stop_lat": 52.42837457,
        "stop_lon": 16.64552228,
        "zone_id": "C",
        "stop_code": null
    },
    {
        "stop_id": "64",
        "stop_name": "Rynek Jeżycki",
        "stop_lat": 52.41222508,
        "stop_lon": 16.90564061,
        "zone_id": "A",
        "stop_code": null
    },
    {
        "stop_id": "3620",
        "stop_name": "Komorniki/Jeziorna",
        "stop_lat": 52.3289512252,
        "stop_lon": 16.8038191203,
        "zone_id": "B",
        "stop_code": null
    },
    {
        "stop_id": "2951",
        "stop_name": "Jaśkowiaka",
        "stop_lat": 52.48864,
        "stop_lon": 16.915324,
        "zone_id": "A",
        "stop_code": null
    },
    {
        "stop_id": "83",
        "stop_name": "Matejki",
        "stop_lat": 52.40578758,
        "stop_lon": 16.90093287,
        "zone_id": "A",
        "stop_code": null
    },
    {
        "stop_id": "2636",
        "stop_name": "Błażejewo/Mikołajczyka II",
        "stop_lat": 52.21074843,
        "stop_lon": 17.10089206,
        "zone_id": "C",
        "stop_code": null
    },
    {
        "stop_id": "4043",
        "stop_name": "Jasna Rola",
        "stop_lat": 52.4517717915,
        "stop_lon": 16.944945699,
        "zone_id": "A",
        "stop_code": null
    },
    {
        "stop_id": "2251",
        "stop_name": "Poklatki/Osiedle",
        "stop_lat": 52.3300611123,
        "stop_lon": 17.2034834521,
        "zone_id": "B",
        "stop_code": null
    },
    {
        "stop_id": "3343",
        "stop_name": "Gaj Wielki/",
        "stop_lat": 52.460294,
        "stop_lon": 16.575284,
        "zone_id": "C",
        "stop_code": null
    },
    {
        "stop_id": "3075",
        "stop_name": "Koninko/Telewizyjna",
        "stop_lat": 52.3088511343,
        "stop_lon": 17.020961908,
        "zone_id": "B",
        "stop_code": null
    },
    {
        "stop_id": "1834",
        "stop_name": "Koziegłowy/Działki",
        "stop_lat": 52.44964736,
        "stop_lon": 17.00302547,
        "zone_id": "B",
        "stop_code": null
    },
    {
        "stop_id": "767",
        "stop_name": "Szamotulska",
        "stop_lat": 52.40445159,
        "stop_lon": 16.8803991,
        "zone_id": "A",
        "stop_code": null
    },
    {
        "stop_id": "258",
        "stop_name": "Zielątkowo/OSP",
        "stop_lat": 52.55998721,
        "stop_lon": 16.79772238,
        "zone_id": "C",
        "stop_code": null
    },
    {
        "stop_id": "1580",
        "stop_name": "Promienista",
        "stop_lat": 52.39591859,
        "stop_lon": 16.88105092,
        "zone_id": "A",
        "stop_code": null
    },
    {
        "stop_id": "1862",
        "stop_name": "Cerekwica/Przybrodzka",
        "stop_lat": 52.51878118,
        "stop_lon": 16.69093252,
        "zone_id": "B",
        "stop_code": null
    },
    {
        "stop_id": "2164",
        "stop_name": "Czapury/Warta",
        "stop_lat": 52.31027362,
        "stop_lon": 16.91041455,
        "zone_id": "B",
        "stop_code": null
    },
    {
        "stop_id": "2128",
        "stop_name": "Koninko/Węzeł",
        "stop_lat": 52.32188955,
        "stop_lon": 17.02965673,
        "zone_id": "B",
        "stop_code": null
    },
    {
        "stop_id": "1457",
        "stop_name": "Nad Wierzbakiem",
        "stop_lat": 52.42079274,
        "stop_lon": 16.90835361,
        "zone_id": "A",
        "stop_code": null
    },
    {
        "stop_id": "2216",
        "stop_name": "Czerwonak/PKM",
        "stop_lat": 52.46814608,
        "stop_lon": 16.98039369,
        "zone_id": "B",
        "stop_code": null
    },
    {
        "stop_id": "3253",
        "stop_name": "Dopiewo/Ośrodek Zdrowia",
        "stop_lat": 52.3575918342,
        "stop_lon": 16.6834564332,
        "zone_id": "C",
        "stop_code": null
    },
    {
        "stop_id": "2439",
        "stop_name": "Łowęcin/II (Poprzeczna)",
        "stop_lat": 52.419848,
        "stop_lon": 17.141598,
        "zone_id": "C",
        "stop_code": null
    },
    {
        "stop_id": "972",
        "stop_name": "Luboń/Klonowa",
        "stop_lat": 52.3422950958,
        "stop_lon": 16.8563708035,
        "zone_id": "B",
        "stop_code": null
    },
    {
        "stop_id": "1960",
        "stop_name": "Przeźmierowo/Wysogotowska",
        "stop_lat": 52.43589817,
        "stop_lon": 16.77268862,
        "zone_id": "B",
        "stop_code": null
    },
    {
        "stop_id": "1922",
        "stop_name": "Sobota/POZ BRUK",
        "stop_lat": 52.51696019,
        "stop_lon": 16.81282099,
        "zone_id": "B",
        "stop_code": null
    },
    {
        "stop_id": "1892",
        "stop_name": "Rostworowo/Jodłowa",
        "stop_lat": 52.52469392,
        "stop_lon": 16.75007145,
        "zone_id": "B",
        "stop_code": null
    },
    {
        "stop_id": "2370",
        "stop_name": "Sierosław/Zakręt",
        "stop_lat": 52.413349,
        "stop_lon": 16.662628,
        "zone_id": "C",
        "stop_code": null
    },
    {
        "stop_id": "2484",
        "stop_name": "Swarzędz/Orla/Geremka",
        "stop_lat": 52.396779,
        "stop_lon": 17.057148,
        "zone_id": "B",
        "stop_code": null
    },
    {
        "stop_id": "2003",
        "stop_name": "Sierosław/Działki",
        "stop_lat": 52.4016946,
        "stop_lon": 16.66575456,
        "zone_id": "C",
        "stop_code": null
    },
    {
        "stop_id": "2843",
        "stop_name": "Luboń/Kwiatowa",
        "stop_lat": 52.3220025182,
        "stop_lon": 16.8793630873,
        "zone_id": "B",
        "stop_code": null
    },
    {
        "stop_id": "1786",
        "stop_name": "Konarzewo/Os. 25-lecia",
        "stop_lat": 52.33494167,
        "stop_lon": 16.72290439,
        "zone_id": "C",
        "stop_code": null
    },
    {
        "stop_id": "224",
        "stop_name": "Polanka",
        "stop_lat": 52.39675,
        "stop_lon": 16.96256,
        "zone_id": "A",
        "stop_code": null
    },
    {
        "stop_id": "2317",
        "stop_name": "Krerowo/Kościół",
        "stop_lat": 52.28998831,
        "stop_lon": 17.19343934,
        "zone_id": "B",
        "stop_code": null
    },
    {
        "stop_id": "2679",
        "stop_name": "Szczodrzykowo/Szkoła",
        "stop_lat": 52.28526195,
        "stop_lon": 17.10280577,
        "zone_id": "C",
        "stop_code": null
    },
    {
        "stop_id": "4054",
        "stop_name": "Lisówki/Sowia",
        "stop_lat": 52.320820227,
        "stop_lon": 16.6626039962,
        "zone_id": "C",
        "stop_code": null
    },
    {
        "stop_id": "2232",
        "stop_name": "Gowarzewo/Al. Kasztanowa",
        "stop_lat": 52.35763745,
        "stop_lon": 17.12413459,
        "zone_id": "B",
        "stop_code": null
    },
    {
        "stop_id": "256",
        "stop_name": "Zielątkowo/Pogodna",
        "stop_lat": 52.56002379,
        "stop_lon": 16.80697064,
        "zone_id": "C",
        "stop_code": null
    },
    {
        "stop_id": "171",
        "stop_name": "AWF",
        "stop_lat": 52.399655,
        "stop_lon": 16.93552,
        "zone_id": "A",
        "stop_code": null
    },
    {
        "stop_id": "2530",
        "stop_name": "Kruszewnia/Pętla",
        "stop_lat": 52.374673,
        "stop_lon": 17.103121,
        "zone_id": "C",
        "stop_code": null
    },
    {
        "stop_id": "968",
        "stop_name": "Luboń/Studzienna",
        "stop_lat": 52.3428724274,
        "stop_lon": 16.8442991166,
        "zone_id": "B",
        "stop_code": null
    },
    {
        "stop_id": "451",
        "stop_name": "Boranta",
        "stop_lat": 52.4565857324,
        "stop_lon": 16.9513652391,
        "zone_id": "A",
        "stop_code": null
    },
    {
        "stop_id": "2185",
        "stop_name": "Żerniki/Skrzyżowanie",
        "stop_lat": 52.3265599102,
        "stop_lon": 17.042965435,
        "zone_id": "B",
        "stop_code": null
    },
    {
        "stop_id": "1552",
        "stop_name": "Ostrowska",
        "stop_lat": 52.35221322,
        "stop_lon": 17.0027901,
        "zone_id": "A",
        "stop_code": null
    },
    {
        "stop_id": "115",
        "stop_name": "Wierzbięcice",
        "stop_lat": 52.40173015,
        "stop_lon": 16.9209242,
        "zone_id": "A",
        "stop_code": null
    },
    {
        "stop_id": "1338",
        "stop_name": "Czapury/Głuszynka",
        "stop_lat": 52.3180093,
        "stop_lon": 16.91294029,
        "zone_id": "B",
        "stop_code": null
    },
    {
        "stop_id": "756",
        "stop_name": "Polna Szpital",
        "stop_lat": 52.40922607,
        "stop_lon": 16.89074283,
        "zone_id": "A",
        "stop_code": null
    },
    {
        "stop_id": "1019",
        "stop_name": "Uradzka",
        "stop_lat": 52.3558237,
        "stop_lon": 16.85891862,
        "zone_id": "A",
        "stop_code": null
    },
    {
        "stop_id": "2055",
        "stop_name": "Rumianek/Nowa I",
        "stop_lat": 52.46320742,
        "stop_lon": 16.6385049,
        "zone_id": "C",
        "stop_code": null
    },
    {
        "stop_id": "820",
        "stop_name": "Malinowa",
        "stop_lat": 52.369478,
        "stop_lon": 16.909902,
        "zone_id": "A",
        "stop_code": null
    },
    {
        "stop_id": "4284",
        "stop_name": "Św. Antoniego",
        "stop_lat": 52.3645619996,
        "stop_lon": 16.9293026818,
        "zone_id": "A",
        "stop_code": null
    },
    {
        "stop_id": "1805",
        "stop_name": "Rosnówko/Stawnego",
        "stop_lat": 52.2996148486,
        "stop_lon": 16.7719575409,
        "zone_id": "C",
        "stop_code": null
    },
    {
        "stop_id": "192",
        "stop_name": "Dębiec PKM",
        "stop_lat": 52.3728856,
        "stop_lon": 16.90318578,
        "zone_id": "A",
        "stop_code": null
    },
    {
        "stop_id": "4041",
        "stop_name": "Błażeja",
        "stop_lat": 52.4555420067,
        "stop_lon": 16.9446357901,
        "zone_id": "A",
        "stop_code": null
    },
    {
        "stop_id": "418",
        "stop_name": "UAM Wydział Geografii",
        "stop_lat": 52.4641879876,
        "stop_lon": 16.9410792174,
        "zone_id": "A",
        "stop_code": null
    },
    {
        "stop_id": "92",
        "stop_name": "Rynek Łazarski",
        "stop_lat": 52.3939634477,
        "stop_lon": 16.898503647,
        "zone_id": "A",
        "stop_code": null
    },
    {
        "stop_id": "1279",
        "stop_name": "Czekalskie",
        "stop_lat": 52.40481955,
        "stop_lon": 16.98436315,
        "zone_id": "A",
        "stop_code": null
    },
    {
        "stop_id": "1058",
        "stop_name": "Opolska",
        "stop_lat": 52.36737838,
        "stop_lon": 16.89705412,
        "zone_id": "A",
        "stop_code": null
    },
    {
        "stop_id": "2385",
        "stop_name": "Potasze/Cedrowa",
        "stop_lat": 52.52215,
        "stop_lon": 17.0168403,
        "zone_id": "C",
        "stop_code": null
    },
    {
        "stop_id": "3871",
        "stop_name": "Witkowice/",
        "stop_lat": 52.497704,
        "stop_lon": 16.529493,
        "zone_id": "C",
        "stop_code": null
    },
    {
        "stop_id": "2268",
        "stop_name": "Komorniki gm.Kleszczewo/RSP",
        "stop_lat": 52.33340873,
        "stop_lon": 17.11110465,
        "zone_id": "B",
        "stop_code": null
    },
    {
        "stop_id": "135",
        "stop_name": "Rondo Śródka",
        "stop_lat": 52.40950043,
        "stop_lon": 16.95642087,
        "zone_id": "A",
        "stop_code": null
    },
    {
        "stop_id": "895",
        "stop_name": "Puszczykowo/PKM",
        "stop_lat": 52.29462022,
        "stop_lon": 16.86839959,
        "zone_id": "C",
        "stop_code": null
    },
    {
        "stop_id": "1311",
        "stop_name": "Kamionki/Platanowa",
        "stop_lat": 52.28925569,
        "stop_lon": 16.97825939,
        "zone_id": "B",
        "stop_code": null
    },
    {
        "stop_id": "1744",
        "stop_name": "Plewiska/Rynek",
        "stop_lat": 52.36944128,
        "stop_lon": 16.81372285,
        "zone_id": "B",
        "stop_code": null
    },
    {
        "stop_id": "4195",
        "stop_name": "Górki",
        "stop_lat": 52.3844295007,
        "stop_lon": 16.8939435599,
        "zone_id": "A",
        "stop_code": null
    },
    {
        "stop_id": "4047",
        "stop_name": "Naramowice",
        "stop_lat": 52.4458593723,
        "stop_lon": 16.9451375473,
        "zone_id": "A",
        "stop_code": null
    },
    {
        "stop_id": "2981",
        "stop_name": "Komorniki/Kolejowa",
        "stop_lat": 52.35232,
        "stop_lon": 16.82742188,
        "zone_id": "B",
        "stop_code": null
    },
    {
        "stop_id": "4283",
        "stop_name": "Tarnowo Pdg/Liceum",
        "stop_lat": 52.46136484,
        "stop_lon": 16.6511556,
        "zone_id": "C",
        "stop_code": null
    },
    {
        "stop_id": "2673",
        "stop_name": "Dziećmierowo/Leśna",
        "stop_lat": 52.27091525,
        "stop_lon": 17.09803622,
        "zone_id": "C",
        "stop_code": null
    },
    {
        "stop_id": "2082",
        "stop_name": "Jankowice/Pałac",
        "stop_lat": 52.44087795,
        "stop_lon": 16.6172356,
        "zone_id": "C",
        "stop_code": null
    },
    {
        "stop_id": "766",
        "stop_name": "Marcelińska",
        "stop_lat": 52.40486034,
        "stop_lon": 16.8755535,
        "zone_id": "A",
        "stop_code": null
    },
    {
        "stop_id": "4132",
        "stop_name": "Rybitwy",
        "stop_lat": 52.4262086,
        "stop_lon": 17.06392118,
        "zone_id": "A",
        "stop_code": null
    },
    {
        "stop_id": "3695",
        "stop_name": "Wojska Polskiego",
        "stop_lat": 52.4288646237,
        "stop_lon": 16.8969245877,
        "zone_id": "A",
        "stop_code": null
    },
    {
        "stop_id": "3743",
        "stop_name": "Kórnik/Bnin Witosa",
        "stop_lat": 52.22572597,
        "stop_lon": 17.09096959,
        "zone_id": "C",
        "stop_code": null
    },
    {
        "stop_id": "1385",
        "stop_name": "Św. Antoniego",
        "stop_lat": 52.36402722,
        "stop_lon": 16.92732555,
        "zone_id": "A",
        "stop_code": null
    },
    {
        "stop_id": "2110",
        "stop_name": "Góra/Szkolna",
        "stop_lat": 52.48205315,
        "stop_lon": 16.63311258,
        "zone_id": "C",
        "stop_code": null
    },
    {
        "stop_id": "600",
        "stop_name": "Braniewska",
        "stop_lat": 52.43518726,
        "stop_lon": 16.82317968,
        "zone_id": "A",
        "stop_code": null
    },
    {
        "stop_id": "3226",
        "stop_name": "Komorniki/Truskawkowa",
        "stop_lat": 52.32705,
        "stop_lon": 16.82222,
        "zone_id": "B",
        "stop_code": null
    },
    {
        "stop_id": "1173",
        "stop_name": "Gnieźnieńska Cmentarz",
        "stop_lat": 52.42517904,
        "stop_lon": 16.99377033,
        "zone_id": "A",
        "stop_code": null
    },
    {
        "stop_id": "933",
        "stop_name": "Luboń/Straż Pożarna",
        "stop_lat": 52.346300178,
        "stop_lon": 16.8772675133,
        "zone_id": "B",
        "stop_code": null
    },
    {
        "stop_id": "3548",
        "stop_name": "Kępińska",
        "stop_lat": 52.3710635,
        "stop_lon": 16.8786349,
        "zone_id": "A",
        "stop_code": null
    },
    {
        "stop_id": "1403",
        "stop_name": "Forteczna",
        "stop_lat": 52.36774155,
        "stop_lon": 16.93866907,
        "zone_id": "A",
        "stop_code": null
    },
    {
        "stop_id": "906",
        "stop_name": "Luboń/Kręta",
        "stop_lat": 52.3201162523,
        "stop_lon": 16.8781972398,
        "zone_id": "B",
        "stop_code": null
    },
    {
        "stop_id": "1303",
        "stop_name": "Kamionki/Lisia",
        "stop_lat": 52.28404559,
        "stop_lon": 17.00662269,
        "zone_id": "B",
        "stop_code": null
    },
    {
        "stop_id": "1919",
        "stop_name": "Sobota/Kasztanowa",
        "stop_lat": 52.52097609,
        "stop_lon": 16.80356494,
        "zone_id": "B",
        "stop_code": null
    },
    {
        "stop_id": "4250",
        "stop_name": "Grotkowska",
        "stop_lat": 52.3862048812,
        "stop_lon": 16.8433841477,
        "zone_id": "A",
        "stop_code": null
    },
    {
        "stop_id": "2155",
        "stop_name": "Tulce/Leśna",
        "stop_lat": 52.34409636,
        "stop_lon": 17.07308485,
        "zone_id": "B",
        "stop_code": null
    },
    {
        "stop_id": "438",
        "stop_name": "Biedrusko/Młyn",
        "stop_lat": 52.51482376,
        "stop_lon": 16.93941208,
        "zone_id": "B",
        "stop_code": null
    },
    {
        "stop_id": "2434",
        "stop_name": "Łowęcin/Lipowa",
        "stop_lat": 52.413614,
        "stop_lon": 17.121465,
        "zone_id": "C",
        "stop_code": null
    },
    {
        "stop_id": "4287",
        "stop_name": "Przeźmierowo/Brzozowa",
        "stop_lat": 52.41951832,
        "stop_lon": 16.7732119338,
        "zone_id": "B",
        "stop_code": null
    },
    {
        "stop_id": "588",
        "stop_name": "Stobnicka",
        "stop_lat": 52.45399743,
        "stop_lon": 16.80108154,
        "zone_id": "A",
        "stop_code": null
    },
    {
        "stop_id": "2874",
        "stop_name": "Gowarzewo/Waniliowa",
        "stop_lat": 52.36397161,
        "stop_lon": 17.13638784,
        "zone_id": "B",
        "stop_code": null
    },
    {
        "stop_id": "2295",
        "stop_name": "Karłowice/Dwór",
        "stop_lat": 52.494807,
        "stop_lon": 17.10134,
        "zone_id": "C",
        "stop_code": null
    },
    {
        "stop_id": "1864",
        "stop_name": "Mrowino/Szkoła",
        "stop_lat": 52.5132105,
        "stop_lon": 16.69967954,
        "zone_id": "B",
        "stop_code": null
    },
    {
        "stop_id": "2539",
        "stop_name": "Swarzędz/Pogodna/Kórnicka",
        "stop_lat": 52.399584,
        "stop_lon": 17.077871,
        "zone_id": "B",
        "stop_code": null
    },
    {
        "stop_id": "243",
        "stop_name": "Chludowo/Szkoła",
        "stop_lat": 52.55610786,
        "stop_lon": 16.84437417,
        "zone_id": "C",
        "stop_code": null
    },
    {
        "stop_id": "1183",
        "stop_name": "Janikowo",
        "stop_lat": 52.436552,
        "stop_lon": 17.01785931,
        "zone_id": "A",
        "stop_code": null
    },
    {
        "stop_id": "1832",
        "stop_name": "Kicin/Jonschera",
        "stop_lat": 52.45762706,
        "stop_lon": 17.01689383,
        "zone_id": "B",
        "stop_code": null
    },
    {
        "stop_id": "1800",
        "stop_name": "Szreniawa/Dworcowa",
        "stop_lat": 52.3186450896,
        "stop_lon": 16.7936954318,
        "zone_id": "C",
        "stop_code": null
    },
    {
        "stop_id": "4248",
        "stop_name": "Gowarzewo/Kościół",
        "stop_lat": 52.36165303,
        "stop_lon": 17.1230105,
        "zone_id": "B",
        "stop_code": null
    },
    {
        "stop_id": "302",
        "stop_name": "Suchy Las/Kościół",
        "stop_lat": 52.47314208,
        "stop_lon": 16.87721967,
        "zone_id": "B",
        "stop_code": null
    },
    {
        "stop_id": "2542",
        "stop_name": "Zalasewo/Glebowa",
        "stop_lat": 52.39062,
        "stop_lon": 17.075725,
        "zone_id": "B",
        "stop_code": null
    },
    {
        "stop_id": "2115",
        "stop_name": "Kaźmierz/Storczykowa",
        "stop_lat": 52.50962837,
        "stop_lon": 16.58906124,
        "zone_id": "C",
        "stop_code": null
    },
    {
        "stop_id": "2521",
        "stop_name": "Swarzędz/Pogodna/Średzka",
        "stop_lat": 52.400494,
        "stop_lon": 17.084236,
        "zone_id": "B",
        "stop_code": null
    },
    {
        "stop_id": "4242",
        "stop_name": "Tarnowo Pdg/Termy",
        "stop_lat": 52.46346895,
        "stop_lon": 16.64181151,
        "zone_id": "C",
        "stop_code": null
    },
    {
        "stop_id": "2857",
        "stop_name": "Rondo Skubiszewskiego",
        "stop_lat": 52.3895752042,
        "stop_lon": 16.8544080476,
        "zone_id": "A",
        "stop_code": null
    },
    {
        "stop_id": "3945",
        "stop_name": "Kórnik/Poprzeczna",
        "stop_lat": 52.2505209837,
        "stop_lon": 17.0850097331,
        "zone_id": "C",
        "stop_code": null
    },
    {
        "stop_id": "1551",
        "stop_name": "Chrzanowska",
        "stop_lat": 52.34734718,
        "stop_lon": 17.00532671,
        "zone_id": "A",
        "stop_code": null
    },
    {
        "stop_id": "4228",
        "stop_name": "Rokietnica/ROS",
        "stop_lat": 52.512281,
        "stop_lon": 16.741566,
        "zone_id": "B",
        "stop_code": null
    },
    {
        "stop_id": "70",
        "stop_name": "Rondo Nowaka-Jeziorańskiego",
        "stop_lat": 52.4023512573,
        "stop_lon": 16.8882176253,
        "zone_id": "A",
        "stop_code": null
    },
    {
        "stop_id": "1982",
        "stop_name": "Batorowo/Poranek",
        "stop_lat": 52.42193262,
        "stop_lon": 16.73962337,
        "zone_id": "C",
        "stop_code": null
    },
    {
        "stop_id": "1813",
        "stop_name": "Sycowska II",
        "stop_lat": 52.36148466,
        "stop_lon": 16.83667334,
        "zone_id": "A",
        "stop_code": null
    },
    {
        "stop_id": "1318",
        "stop_name": "Daszewice/Leśna",
        "stop_lat": 52.30242753,
        "stop_lon": 16.95332501,
        "zone_id": "B",
        "stop_code": null
    },
    {
        "stop_id": "981",
        "stop_name": "Luboń/Pl. Bojanowskiego",
        "stop_lat": 52.3497457016,
        "stop_lon": 16.861491678,
        "zone_id": "B",
        "stop_code": null
    },
    {
        "stop_id": "2761",
        "stop_name": "Dachowa/Klonowa",
        "stop_lat": 52.29616811,
        "stop_lon": 17.09906191,
        "zone_id": "B",
        "stop_code": null
    },
    {
        "stop_id": "1680",
        "stop_name": "Rolna",
        "stop_lat": 52.38434381,
        "stop_lon": 16.91703212,
        "zone_id": "A",
        "stop_code": null
    },
    {
        "stop_id": "1136",
        "stop_name": "Małe Garbary",
        "stop_lat": 52.41045494,
        "stop_lon": 16.93809004,
        "zone_id": "A",
        "stop_code": null
    },
    {
        "stop_id": "63",
        "stop_name": "Polna",
        "stop_lat": 52.41421483,
        "stop_lon": 16.89720214,
        "zone_id": "A",
        "stop_code": null
    },
    {
        "stop_id": "1582",
        "stop_name": "Palacza",
        "stop_lat": 52.38831754,
        "stop_lon": 16.88113402,
        "zone_id": "A",
        "stop_code": null
    },
    {
        "stop_id": "533",
        "stop_name": "Lutycka",
        "stop_lat": 52.43879764,
        "stop_lon": 16.89574171,
        "zone_id": "A",
        "stop_code": null
    },
    {
        "stop_id": "3378",
        "stop_name": "Złotniki/Osiedle",
        "stop_lat": 52.48877611,
        "stop_lon": 16.85437853,
        "zone_id": "B",
        "stop_code": null
    },
    {
        "stop_id": "1047",
        "stop_name": "Okulickiego",
        "stop_lat": 52.359996,
        "stop_lon": 16.88076818,
        "zone_id": "A",
        "stop_code": null
    },
    {
        "stop_id": "4106",
        "stop_name": "Oświęcimska",
        "stop_lat": 52.3540567377,
        "stop_lon": 16.9378620686,
        "zone_id": "A",
        "stop_code": null
    },
    {
        "stop_id": "1873",
        "stop_name": "Mrowino/Gniewka",
        "stop_lat": 52.51501241,
        "stop_lon": 16.71969458,
        "zone_id": "B",
        "stop_code": null
    },
    {
        "stop_id": "2614",
        "stop_name": "Robakowo/Węzeł",
        "stop_lat": 52.29680742,
        "stop_lon": 17.0513468,
        "zone_id": "B",
        "stop_code": null
    },
    {
        "stop_id": "2171",
        "stop_name": "Promnice/Północna",
        "stop_lat": 52.5413062,
        "stop_lon": 16.96554192,
        "zone_id": "C",
        "stop_code": null
    },
    {
        "stop_id": "353",
        "stop_name": "Strzeszyn PKM",
        "stop_lat": 52.46196237,
        "stop_lon": 16.86674456,
        "zone_id": "A",
        "stop_code": null
    },
    {
        "stop_id": "2166",
        "stop_name": "Tulce/Kościół",
        "stop_lat": 52.34203289,
        "stop_lon": 17.08056719,
        "zone_id": "B",
        "stop_code": null
    },
    {
        "stop_id": "1958",
        "stop_name": "Przeźmierowo/Leśna",
        "stop_lat": 52.4315745011,
        "stop_lon": 16.7827453197,
        "zone_id": "B",
        "stop_code": null
    },
    {
        "stop_id": "1702",
        "stop_name": "Cmentarna",
        "stop_lat": 52.38518159,
        "stop_lon": 16.839054,
        "zone_id": "A",
        "stop_code": null
    },
    {
        "stop_id": "1278",
        "stop_name": "Tor Regatowy Malta",
        "stop_lat": 52.402468369,
        "stop_lon": 16.989424995,
        "zone_id": "A",
        "stop_code": null
    },
    {
        "stop_id": "2352",
        "stop_name": "Uzarzewo/Skrzyżowanie",
        "stop_lat": 52.460331,
        "stop_lon": 17.112799,
        "zone_id": "C",
        "stop_code": null
    },
    {
        "stop_id": "681",
        "stop_name": "Dąbrówka/Parkowa",
        "stop_lat": 52.38434084,
        "stop_lon": 16.74386593,
        "zone_id": "C",
        "stop_code": null
    },
    {
        "stop_id": "2750",
        "stop_name": "Robakowo/Szkolna Rondo",
        "stop_lat": 52.30887194,
        "stop_lon": 17.07043733,
        "zone_id": "B",
        "stop_code": null
    },
    {
        "stop_id": "1322",
        "stop_name": "Babki/Ośrodek Zdrowia",
        "stop_lat": 52.31368277,
        "stop_lon": 16.93601991,
        "zone_id": "B",
        "stop_code": null
    },
    {
        "stop_id": "666",
        "stop_name": "Malwowa",
        "stop_lat": 52.39778445,
        "stop_lon": 16.80410078,
        "zone_id": "A",
        "stop_code": null
    },
    {
        "stop_id": "955",
        "stop_name": "Wiry/Brzoskwiniowa",
        "stop_lat": 52.3293663082,
        "stop_lon": 16.8368760623,
        "zone_id": "B",
        "stop_code": null
    },
    {
        "stop_id": "1199",
        "stop_name": "Koziegłowy/Szkoła",
        "stop_lat": 52.4456163792,
        "stop_lon": 16.9910040543,
        "zone_id": "B",
        "stop_code": null
    },
    {
        "stop_id": "2561",
        "stop_name": "Tulce/Leśna",
        "stop_lat": 52.344768,
        "stop_lon": 17.073939,
        "zone_id": "B",
        "stop_code": null
    },
    {
        "stop_id": "2355",
        "stop_name": "Uzarzewo/Centrum (Kościół)",
        "stop_lat": 52.448912,
        "stop_lon": 17.12666,
        "zone_id": "C",
        "stop_code": null
    },
    {
        "stop_id": "2195",
        "stop_name": "Owińska/Ks. Piotrowskiego",
        "stop_lat": 52.51722778,
        "stop_lon": 16.97456421,
        "zone_id": "C",
        "stop_code": null
    },
    {
        "stop_id": "4218",
        "stop_name": "Perkoza",
        "stop_lat": 52.4248039972,
        "stop_lon": 17.0649099318,
        "zone_id": "A",
        "stop_code": null
    },
    {
        "stop_id": "1151",
        "stop_name": "Koronkarska",
        "stop_lat": 52.41661318,
        "stop_lon": 16.96026617,
        "zone_id": "A",
        "stop_code": null
    },
    {
        "stop_id": "1393",
        "stop_name": "Starołęka PKM",
        "stop_lat": 52.36622882,
        "stop_lon": 16.93009263,
        "zone_id": "A",
        "stop_code": null
    },
    {
        "stop_id": "1234",
        "stop_name": "Schronisko Dla Zwierząt",
        "stop_lat": 52.38911429,
        "stop_lon": 17.02515586,
        "zone_id": "A",
        "stop_code": null
    },
    {
        "stop_id": "2513",
        "stop_name": "Jasin/Rabowicka Pętla",
        "stop_lat": 52.398064,
        "stop_lon": 17.109189,
        "zone_id": "B",
        "stop_code": null
    },
    {
        "stop_id": "2570",
        "stop_name": "M. Goślina/Nowy Rynek",
        "stop_lat": 52.56739824,
        "stop_lon": 16.99547823,
        "zone_id": "C",
        "stop_code": null
    },
    {
        "stop_id": "2438",
        "stop_name": "Łowęcin/II (Poprzeczna)",
        "stop_lat": 52.419862,
        "stop_lon": 17.141383,
        "zone_id": "C",
        "stop_code": null
    },
    {
        "stop_id": "4119",
        "stop_name": "Cmentarna Parking",
        "stop_lat": 52.3901158738,
        "stop_lon": 16.8305450676,
        "zone_id": "A",
        "stop_code": null
    },
    {
        "stop_id": "4207",
        "stop_name": "Komorniki/Tulipanowa",
        "stop_lat": 52.34847,
        "stop_lon": 16.81363,
        "zone_id": "B",
        "stop_code": null
    },
    {
        "stop_id": "4217",
        "stop_name": "Perkoza",
        "stop_lat": 52.4244618431,
        "stop_lon": 17.0650575074,
        "zone_id": "A",
        "stop_code": null
    },
    {
        "stop_id": "1983",
        "stop_name": "Batorowo/Poranek",
        "stop_lat": 52.42184382,
        "stop_lon": 16.7399436,
        "zone_id": "C",
        "stop_code": null
    },
    {
        "stop_id": "2982",
        "stop_name": "Komorniki/Kolejowa",
        "stop_lat": 52.35220754,
        "stop_lon": 16.82735631,
        "zone_id": "B",
        "stop_code": null
    },
    {
        "stop_id": "589",
        "stop_name": "Słupska",
        "stop_lat": 52.44830286,
        "stop_lon": 16.80437342,
        "zone_id": "A",
        "stop_code": null
    },
    {
        "stop_id": "2261",
        "stop_name": "Nagradowice/Ośrodek Zdrowia",
        "stop_lat": 52.32080879,
        "stop_lon": 17.14733025,
        "zone_id": "B",
        "stop_code": null
    },
    {
        "stop_id": "2876",
        "stop_name": "Gowarzewo/Truskawkowa",
        "stop_lat": 52.36671655,
        "stop_lon": 17.14174085,
        "zone_id": "B",
        "stop_code": null
    },
    {
        "stop_id": "3734",
        "stop_name": "Kobylnica/Stacja",
        "stop_lat": 52.4458323731,
        "stop_lon": 17.0806119792,
        "zone_id": "B",
        "stop_code": null
    },
    {
        "stop_id": "162",
        "stop_name": "Kórnicka",
        "stop_lat": 52.39982533,
        "stop_lon": 16.95285951,
        "zone_id": "A",
        "stop_code": null
    },
    {
        "stop_id": "985",
        "stop_name": "Luboń/Sikorskiego",
        "stop_lat": 52.3489339532,
        "stop_lon": 16.8723827598,
        "zone_id": "B",
        "stop_code": null
    },
    {
        "stop_id": "1950",
        "stop_name": "Baranowo/Os. Rubinowe",
        "stop_lat": 52.4289,
        "stop_lon": 16.799611,
        "zone_id": "B",
        "stop_code": null
    },
    {
        "stop_id": "1807",
        "stop_name": "Rosnówko/Dom Kultury",
        "stop_lat": 52.3044454046,
        "stop_lon": 16.7622765793,
        "zone_id": "C",
        "stop_code": null
    },
    {
        "stop_id": "1207",
        "stop_name": "Czerwonacka",
        "stop_lat": 52.4348153317,
        "stop_lon": 16.9800391847,
        "zone_id": "A",
        "stop_code": null
    },
    {
        "stop_id": "484",
        "stop_name": "Wilczak/Serbska",
        "stop_lat": 52.43091397,
        "stop_lon": 16.95399925,
        "zone_id": "A",
        "stop_code": null
    },
    {
        "stop_id": "625",
        "stop_name": "Szpitalna",
        "stop_lat": 52.41219919,
        "stop_lon": 16.87697508,
        "zone_id": "A",
        "stop_code": null
    },
    {
        "stop_id": "813",
        "stop_name": "Dębiec PKM",
        "stop_lat": 52.37192925,
        "stop_lon": 16.90365054,
        "zone_id": "A",
        "stop_code": null
    },
    {
        "stop_id": "439",
        "stop_name": "Biedrusko/Młyn",
        "stop_lat": 52.51508539,
        "stop_lon": 16.93943244,
        "zone_id": "B",
        "stop_code": null
    },
    {
        "stop_id": "1684",
        "stop_name": "Wilków Morskich",
        "stop_lat": 52.47799983,
        "stop_lon": 16.78128161,
        "zone_id": "A",
        "stop_code": null
    },
    {
        "stop_id": "1709",
        "stop_name": "Zamek",
        "stop_lat": 52.40724,
        "stop_lon": 16.91893,
        "zone_id": "A",
        "stop_code": null
    },
    {
        "stop_id": "4155",
        "stop_name": "Skórzewo/Wrzosowa",
        "stop_lat": 52.3969547721,
        "stop_lon": 16.7850179845,
        "zone_id": "B",
        "stop_code": null
    },
    {
        "stop_id": "2602",
        "stop_name": "Młodasko/",
        "stop_lat": 52.476483,
        "stop_lon": 16.542592,
        "zone_id": "C",
        "stop_code": null
    },
    {
        "stop_id": "4018",
        "stop_name": "Rynek Wildecki",
        "stop_lat": 52.3929092278,
        "stop_lon": 16.9204481437,
        "zone_id": "A",
        "stop_code": null
    },
    {
        "stop_id": "1039",
        "stop_name": "Jesionowa",
        "stop_lat": 52.36962704,
        "stop_lon": 16.89300146,
        "zone_id": "A",
        "stop_code": null
    },
    {
        "stop_id": "677",
        "stop_name": "Dąbrowa/Poprzeczna",
        "stop_lat": 52.3925379,
        "stop_lon": 16.75036898,
        "zone_id": "C",
        "stop_code": null
    },
    {
        "stop_id": "2520",
        "stop_name": "Kruszewnia/Os. Izabelin",
        "stop_lat": 52.385437,
        "stop_lon": 17.097042,
        "zone_id": "C",
        "stop_code": null
    },
    {
        "stop_id": "2150",
        "stop_name": "Koninko/Pisarska",
        "stop_lat": 52.306437,
        "stop_lon": 17.013562,
        "zone_id": "B",
        "stop_code": null
    },
    {
        "stop_id": "1374",
        "stop_name": "Rondo Minikowo",
        "stop_lat": 52.35527177,
        "stop_lon": 16.94395759,
        "zone_id": "A",
        "stop_code": null
    },
    {
        "stop_id": "1170",
        "stop_name": "Urwista",
        "stop_lat": 52.42330375,
        "stop_lon": 16.98431643,
        "zone_id": "A",
        "stop_code": null
    },
    {
        "stop_id": "1872",
        "stop_name": "Mrowino/Park",
        "stop_lat": 52.51802871,
        "stop_lon": 16.70535994,
        "zone_id": "B",
        "stop_code": null
    },
    {
        "stop_id": "3732",
        "stop_name": "Komorniki/Kryształowa",
        "stop_lat": 52.347839,
        "stop_lon": 16.783301,
        "zone_id": "B",
        "stop_code": null
    },
    {
        "stop_id": "3092",
        "stop_name": "Luboń/Strumykowa",
        "stop_lat": 52.3444420093,
        "stop_lon": 16.898400344,
        "zone_id": "B",
        "stop_code": null
    },
    {
        "stop_id": "1784",
        "stop_name": "Komorniki/Magazynowa",
        "stop_lat": 52.3458221129,
        "stop_lon": 16.8285232814,
        "zone_id": "B",
        "stop_code": null
    },
    {
        "stop_id": "635",
        "stop_name": "Zgorzelecka",
        "stop_lat": 52.41178337,
        "stop_lon": 16.85831606,
        "zone_id": "A",
        "stop_code": null
    },
    {
        "stop_id": "2426",
        "stop_name": "Swarzędz/Sporna",
        "stop_lat": 52.409024,
        "stop_lon": 17.09171,
        "zone_id": "B",
        "stop_code": null
    },
    {
        "stop_id": "2080",
        "stop_name": "Lusówko/Grabowa",
        "stop_lat": 52.43343616,
        "stop_lon": 16.63942216,
        "zone_id": "C",
        "stop_code": null
    },
    {
        "stop_id": "3100",
        "stop_name": "Czerwonak/Szkolna",
        "stop_lat": 52.4657982376,
        "stop_lon": 16.9835662424,
        "zone_id": "B",
        "stop_code": null
    },
    {
        "stop_id": "668",
        "stop_name": "Malwowa",
        "stop_lat": 52.3971935,
        "stop_lon": 16.80231554,
        "zone_id": "A",
        "stop_code": null
    },
    {
        "stop_id": "2299",
        "stop_name": "Czerwonak/Zalesie",
        "stop_lat": 52.464943643,
        "stop_lon": 16.991048327,
        "zone_id": "B",
        "stop_code": null
    },
    {
        "stop_id": "2363",
        "stop_name": "Markowice/Centrum",
        "stop_lat": 52.30321313,
        "stop_lon": 17.22392575,
        "zone_id": "B",
        "stop_code": null
    },
    {
        "stop_id": "1231",
        "stop_name": "Piwna",
        "stop_lat": 52.39248731,
        "stop_lon": 17.01470999,
        "zone_id": "A",
        "stop_code": null
    },
    {
        "stop_id": "892",
        "stop_name": "Puszczykowo/Wiosenna",
        "stop_lat": 52.28972399,
        "stop_lon": 16.85877166,
        "zone_id": "C",
        "stop_code": null
    },
    {
        "stop_id": "4192",
        "stop_name": "Drużynowa",
        "stop_lat": 52.3799591908,
        "stop_lon": 16.8957144675,
        "zone_id": "A",
        "stop_code": null
    },
    {
        "stop_id": "1859",
        "stop_name": "Przybroda/Pętla",
        "stop_lat": 52.5206125,
        "stop_lon": 16.65574766,
        "zone_id": "B",
        "stop_code": null
    },
    {
        "stop_id": "1150",
        "stop_name": "Koronkarska",
        "stop_lat": 52.41605845,
        "stop_lon": 16.95936669,
        "zone_id": "A",
        "stop_code": null
    },
    {
        "stop_id": "1888",
        "stop_name": "Krzyszkowo/Koszycy",
        "stop_lat": 52.51900107,
        "stop_lon": 16.73649001,
        "zone_id": "B",
        "stop_code": null
    },
    {
        "stop_id": "3243",
        "stop_name": "Konarzewo/Młyńska",
        "stop_lat": 52.3397150535,
        "stop_lon": 16.72054219,
        "zone_id": "C",
        "stop_code": null
    },
    {
        "stop_id": "1920",
        "stop_name": "Sobota/Kasztanowa",
        "stop_lat": 52.5212223,
        "stop_lon": 16.80282197,
        "zone_id": "B",
        "stop_code": null
    },
    {
        "stop_id": "3909",
        "stop_name": "Os. Czecha I",
        "stop_lat": 52.3824467578,
        "stop_lon": 16.9834186667,
        "zone_id": "A",
        "stop_code": null
    },
    {
        "stop_id": "3099",
        "stop_name": "Czerwonak/Szkolna",
        "stop_lat": 52.4655643502,
        "stop_lon": 16.983241576,
        "zone_id": "B",
        "stop_code": null
    },
    {
        "stop_id": "1053",
        "stop_name": "Będzińska",
        "stop_lat": 52.3613977,
        "stop_lon": 16.88977422,
        "zone_id": "A",
        "stop_code": null
    },
    {
        "stop_id": "1016",
        "stop_name": "Kotowo",
        "stop_lat": 52.35922692,
        "stop_lon": 16.8537916,
        "zone_id": "A",
        "stop_code": null
    },
    {
        "stop_id": "3697",
        "stop_name": "Dojazd Biocentrum",
        "stop_lat": 52.4331409323,
        "stop_lon": 16.8993595857,
        "zone_id": "A",
        "stop_code": null
    },
    {
        "stop_id": "1222",
        "stop_name": "Sobiesława",
        "stop_lat": 52.40535446,
        "stop_lon": 17.02275392,
        "zone_id": "A",
        "stop_code": null
    },
    {
        "stop_id": "4270",
        "stop_name": "Plewiska/Jarzębinowa",
        "stop_lat": 52.3713958418,
        "stop_lon": 16.8316076121,
        "zone_id": "B",
        "stop_code": null
    },
    {
        "stop_id": "1781",
        "stop_name": "Modlibowskiej ",
        "stop_lat": 52.35451161,
        "stop_lon": 16.84876928,
        "zone_id": "A",
        "stop_code": null
    },
    {
        "stop_id": "1808",
        "stop_name": "Walerianowo/Bukowa",
        "stop_lat": 52.314971482,
        "stop_lon": 16.7704375119,
        "zone_id": "C",
        "stop_code": null
    },
    {
        "stop_id": "3968",
        "stop_name": "Czerwonak/Błękitna",
        "stop_lat": 52.4644218823,
        "stop_lon": 16.9988698356,
        "zone_id": "B",
        "stop_code": null
    },
    {
        "stop_id": "2320",
        "stop_name": "Zimin/Nowy Świat",
        "stop_lat": 52.2920498,
        "stop_lon": 17.17228415,
        "zone_id": "B",
        "stop_code": null
    },
    {
        "stop_id": "2840",
        "stop_name": "Luboń/Polna",
        "stop_lat": 52.321695667,
        "stop_lon": 16.8731206379,
        "zone_id": "B",
        "stop_code": null
    },
    {
        "stop_id": "1229",
        "stop_name": "Piwna",
        "stop_lat": 52.39285873,
        "stop_lon": 17.01496612,
        "zone_id": "A",
        "stop_code": null
    },
    {
        "stop_id": "118",
        "stop_name": "Fredry",
        "stop_lat": 52.40948,
        "stop_lon": 16.91847,
        "zone_id": "A",
        "stop_code": null
    },
    {
        "stop_id": "948",
        "stop_name": "Wiry/Laskowska",
        "stop_lat": 52.3150707727,
        "stop_lon": 16.8630559797,
        "zone_id": "B",
        "stop_code": null
    },
    {
        "stop_id": "4014",
        "stop_name": "Serbska",
        "stop_lat": 52.432642,
        "stop_lon": 16.946385,
        "zone_id": "A",
        "stop_code": null
    },
    {
        "stop_id": "365",
        "stop_name": "Os. Jagiełły",
        "stop_lat": 52.45359957,
        "stop_lon": 16.90735893,
        "zone_id": "A",
        "stop_code": null
    },
    {
        "stop_id": "1147",
        "stop_name": "Zawady",
        "stop_lat": 52.41306219,
        "stop_lon": 16.9570964,
        "zone_id": "A",
        "stop_code": null
    },
    {
        "stop_id": "4214",
        "stop_name": "Łacina",
        "stop_lat": 52.39445,
        "stop_lon": 16.96639,
        "zone_id": "A",
        "stop_code": null
    },
    {
        "stop_id": "3954",
        "stop_name": "Dębogóra/Wiązowa",
        "stop_lat": 52.4989976345,
        "stop_lon": 17.0761551951,
        "zone_id": "C",
        "stop_code": null
    },
    {
        "stop_id": "3650",
        "stop_name": "Jankowo/",
        "stop_lat": 52.4441853926,
        "stop_lon": 17.1693639655,
        "zone_id": "C",
        "stop_code": null
    },
    {
        "stop_id": "2661",
        "stop_name": "Kórnik/Bnin Biernacka",
        "stop_lat": 52.23389248,
        "stop_lon": 17.09604093,
        "zone_id": "C",
        "stop_code": null
    },
    {
        "stop_id": "2132",
        "stop_name": "Szczytniki/Nad Wodą",
        "stop_lat": 52.301833,
        "stop_lon": 17.016402,
        "zone_id": "B",
        "stop_code": null
    },
    {
        "stop_id": "1943",
        "stop_name": "Przeźmierowo/Krańcowa",
        "stop_lat": 52.4215714351,
        "stop_lon": 16.7874382249,
        "zone_id": "B",
        "stop_code": null
    },
    {
        "stop_id": "2252",
        "stop_name": "Poklatki/Pętla",
        "stop_lat": 52.32818045,
        "stop_lon": 17.2025601,
        "zone_id": "B",
        "stop_code": null
    },
    {
        "stop_id": "122",
        "stop_name": "Wrocławska",
        "stop_lat": 52.40556832,
        "stop_lon": 16.93213536,
        "zone_id": "A",
        "stop_code": null
    },
    {
        "stop_id": "2471",
        "stop_name": "Sokolniki Gwiazdowskie/Łubinowa",
        "stop_lat": 52.41477,
        "stop_lon": 17.170544,
        "zone_id": "C",
        "stop_code": null
    },
    {
        "stop_id": "2398",
        "stop_name": "Swarzędz/Cybińska",
        "stop_lat": 52.416825,
        "stop_lon": 17.088578,
        "zone_id": "B",
        "stop_code": null
    },
    {
        "stop_id": "2842",
        "stop_name": "Luboń/Kwiatowa",
        "stop_lat": 52.3219934932,
        "stop_lon": 16.8789941482,
        "zone_id": "B",
        "stop_code": null
    },
    {
        "stop_id": "4120",
        "stop_name": "Cmentarna Furtka",
        "stop_lat": 52.3881153633,
        "stop_lon": 16.8342787311,
        "zone_id": "A",
        "stop_code": null
    },
    {
        "stop_id": "2455",
        "stop_name": "Paczkowo/Ogrodowa",
        "stop_lat": 52.397707,
        "stop_lon": 17.159132,
        "zone_id": "C",
        "stop_code": null
    },
    {
        "stop_id": "1036",
        "stop_name": "Górecka",
        "stop_lat": 52.37299571,
        "stop_lon": 16.89327055,
        "zone_id": "A",
        "stop_code": null
    },
    {
        "stop_id": "3103",
        "stop_name": "M. Goślina/Polna",
        "stop_lat": 52.5782079136,
        "stop_lon": 17.0178037894,
        "zone_id": "C",
        "stop_code": null
    },
    {
        "stop_id": "2384",
        "stop_name": "Potasze/Cedrowa",
        "stop_lat": 52.52210289,
        "stop_lon": 17.01637324,
        "zone_id": "C",
        "stop_code": null
    },
    {
        "stop_id": "2395",
        "stop_name": "Dębogóra/Leśna",
        "stop_lat": 52.49744699,
        "stop_lon": 17.09197673,
        "zone_id": "C",
        "stop_code": null
    },
    {
        "stop_id": "4220",
        "stop_name": "Miękowo/Słowackiego",
        "stop_lat": 52.4889379498,
        "stop_lon": 16.9825922432,
        "zone_id": "C",
        "stop_code": null
    },
    {
        "stop_id": "1588",
        "stop_name": "Tokarska",
        "stop_lat": 52.37721711,
        "stop_lon": 16.91282031,
        "zone_id": "A",
        "stop_code": null
    },
    {
        "stop_id": "1649",
        "stop_name": "Porzeczkowa",
        "stop_lat": 52.36162729,
        "stop_lon": 17.01559786,
        "zone_id": "A",
        "stop_code": null
    },
    {
        "stop_id": "2134",
        "stop_name": "Szczytniki/Pętla",
        "stop_lat": 52.304509,
        "stop_lon": 17.010362,
        "zone_id": "B",
        "stop_code": null
    },
    {
        "stop_id": "1130",
        "stop_name": "Garbary PKM",
        "stop_lat": 52.41673653,
        "stop_lon": 16.93943913,
        "zone_id": "A",
        "stop_code": null
    },
    {
        "stop_id": "1052",
        "stop_name": "Korfantego",
        "stop_lat": 52.35961591,
        "stop_lon": 16.88751365,
        "zone_id": "A",
        "stop_code": null
    },
    {
        "stop_id": "606",
        "stop_name": "Kołobrzeska",
        "stop_lat": 52.43152114,
        "stop_lon": 16.83840397,
        "zone_id": "A",
        "stop_code": null
    },
    {
        "stop_id": "398",
        "stop_name": "Strugarka",
        "stop_lat": 52.45412677,
        "stop_lon": 16.92768751,
        "zone_id": "A",
        "stop_code": null
    },
    {
        "stop_id": "452",
        "stop_name": "Bronisza",
        "stop_lat": 52.45545305,
        "stop_lon": 16.94771615,
        "zone_id": "A",
        "stop_code": null
    },
    {
        "stop_id": "3091",
        "stop_name": "Luboń/Strumykowa",
        "stop_lat": 52.3444420093,
        "stop_lon": 16.8979428596,
        "zone_id": "B",
        "stop_code": null
    },
    {
        "stop_id": "1771",
        "stop_name": "Most Teatralny",
        "stop_lat": 52.41002163,
        "stop_lon": 16.91318503,
        "zone_id": "A",
        "stop_code": null
    },
    {
        "stop_id": "1085",
        "stop_name": "Sielska",
        "stop_lat": 52.38405022,
        "stop_lon": 16.88704229,
        "zone_id": "A",
        "stop_code": null
    },
    {
        "stop_id": "335",
        "stop_name": "Suchy Las/Os. Poziomkowe",
        "stop_lat": 52.46938471,
        "stop_lon": 16.87287843,
        "zone_id": "B",
        "stop_code": null
    },
    {
        "stop_id": "1586",
        "stop_name": "Tokarska",
        "stop_lat": 52.37659973,
        "stop_lon": 16.91374439,
        "zone_id": "A",
        "stop_code": null
    },
    {
        "stop_id": "1312",
        "stop_name": "Daszewice/Lipowa",
        "stop_lat": 52.29262066,
        "stop_lon": 16.96836098,
        "zone_id": "B",
        "stop_code": null
    },
    {
        "stop_id": "628",
        "stop_name": "Swoboda",
        "stop_lat": 52.41171845,
        "stop_lon": 16.87416876,
        "zone_id": "A",
        "stop_code": null
    },
    {
        "stop_id": "2942",
        "stop_name": "Bolechowo-Os./Zespół Szkół",
        "stop_lat": 52.55038817,
        "stop_lon": 16.97625347,
        "zone_id": "C",
        "stop_code": null
    },
    {
        "stop_id": "1734",
        "stop_name": "Twardogórska",
        "stop_lat": 52.37965,
        "stop_lon": 16.82821,
        "zone_id": "A",
        "stop_code": null
    },
    {
        "stop_id": "1123",
        "stop_name": "Wójtowska",
        "stop_lat": 52.43000839,
        "stop_lon": 16.93990705,
        "zone_id": "A",
        "stop_code": null
    },
    {
        "stop_id": "3880",
        "stop_name": "Kobylniki/Karolewska",
        "stop_lat": 52.4758991888,
        "stop_lon": 16.7240102174,
        "zone_id": "B",
        "stop_code": null
    },
    {
        "stop_id": "1310",
        "stop_name": "Kamionki/Platanowa",
        "stop_lat": 52.28917254,
        "stop_lon": 16.9787976,
        "zone_id": "B",
        "stop_code": null
    },
    {
        "stop_id": "1293",
        "stop_name": "Rondo Rataje",
        "stop_lat": 52.39687359,
        "stop_lon": 16.94979408,
        "zone_id": "A",
        "stop_code": null
    },
    {
        "stop_id": "95",
        "stop_name": "Głogowska/Hetmańska",
        "stop_lat": 52.38998607,
        "stop_lon": 16.89468482,
        "zone_id": "A",
        "stop_code": null
    },
    {
        "stop_id": "120",
        "stop_name": "Aleje Marcinkowskiego",
        "stop_lat": 52.40642121,
        "stop_lon": 16.9284599,
        "zone_id": "A",
        "stop_code": null
    },
    {
        "stop_id": "545",
        "stop_name": "Literacka",
        "stop_lat": 52.44034134,
        "stop_lon": 16.87172976,
        "zone_id": "A",
        "stop_code": null
    },
    {
        "stop_id": "1386",
        "stop_name": "Św. Antoniego",
        "stop_lat": 52.36430355,
        "stop_lon": 16.92766304,
        "zone_id": "A",
        "stop_code": null
    },
    {
        "stop_id": "685",
        "stop_name": "Palędzie/Nowa",
        "stop_lat": 52.37300214,
        "stop_lon": 16.73869737,
        "zone_id": "C",
        "stop_code": null
    },
    {
        "stop_id": "2969",
        "stop_name": "Przebędowo/Pętla",
        "stop_lat": 52.58722581,
        "stop_lon": 17.00975653,
        "zone_id": "C",
        "stop_code": null
    },
    {
        "stop_id": "151",
        "stop_name": "Miłostowo",
        "stop_lat": 52.40960986,
        "stop_lon": 17.00290112,
        "zone_id": "A",
        "stop_code": null
    },
    {
        "stop_id": "824",
        "stop_name": "Os. Dębina",
        "stop_lat": 52.36153307,
        "stop_lon": 16.90455359,
        "zone_id": "A",
        "stop_code": null
    },
    {
        "stop_id": "2322",
        "stop_name": "Zimin/Świetlica OSP",
        "stop_lat": 52.29420376,
        "stop_lon": 17.15905546,
        "zone_id": "B",
        "stop_code": null
    },
    {
        "stop_id": "185",
        "stop_name": "Traugutta",
        "stop_lat": 52.38464072,
        "stop_lon": 16.9140023,
        "zone_id": "A",
        "stop_code": null
    },
    {
        "stop_id": "2288",
        "stop_name": "Wierzonka/Pętla",
        "stop_lat": 52.47804,
        "stop_lon": 17.095131,
        "zone_id": "C",
        "stop_code": null
    },
    {
        "stop_id": "2921",
        "stop_name": "Promnice/Północna",
        "stop_lat": 52.54175747,
        "stop_lon": 16.96593404,
        "zone_id": "C",
        "stop_code": null
    },
    {
        "stop_id": "315",
        "stop_name": "Morasko",
        "stop_lat": 52.48926818,
        "stop_lon": 16.9054379,
        "zone_id": "A",
        "stop_code": null
    },
    {
        "stop_id": "2872",
        "stop_name": "Gowarzewo/Nowa",
        "stop_lat": 52.36211641,
        "stop_lon": 17.13277432,
        "zone_id": "B",
        "stop_code": null
    },
    {
        "stop_id": "1679",
        "stop_name": "Rolna",
        "stop_lat": 52.3838415,
        "stop_lon": 16.91828856,
        "zone_id": "A",
        "stop_code": null
    },
    {
        "stop_id": "3987",
        "stop_name": "Rondo Rataje",
        "stop_lat": 52.39649,
        "stop_lon": 16.95091,
        "zone_id": "A",
        "stop_code": null
    },
    {
        "stop_id": "1657",
        "stop_name": "Miłostowo",
        "stop_lat": 52.41052847,
        "stop_lon": 17.00424548,
        "zone_id": "A",
        "stop_code": null
    },
    {
        "stop_id": "190",
        "stop_name": "Wspólna",
        "stop_lat": 52.37778462,
        "stop_lon": 16.90761407,
        "zone_id": "A",
        "stop_code": null
    },
    {
        "stop_id": "113",
        "stop_name": "Półwiejska",
        "stop_lat": 52.39992,
        "stop_lon": 16.92816,
        "zone_id": "A",
        "stop_code": null
    },
    {
        "stop_id": "3166",
        "stop_name": "Rokietnica/Kolejowa",
        "stop_lat": 52.5137009499,
        "stop_lon": 16.7418816267,
        "zone_id": "B",
        "stop_code": null
    },
    {
        "stop_id": "4076",
        "stop_name": "Rokietnica/Bukowa",
        "stop_lat": 52.497886,
        "stop_lon": 16.733909,
        "zone_id": "B",
        "stop_code": null
    },
    {
        "stop_id": "2914",
        "stop_name": "Skórzewo/Szarotkowa",
        "stop_lat": 52.39385953,
        "stop_lon": 16.79627443,
        "zone_id": "B",
        "stop_code": null
    },
    {
        "stop_id": "2051",
        "stop_name": "Tarnowo Pdg/Piaskowa",
        "stop_lat": 52.4590882,
        "stop_lon": 16.64660239,
        "zone_id": "C",
        "stop_code": null
    },
    {
        "stop_id": "130",
        "stop_name": "Katedra",
        "stop_lat": 52.41009874,
        "stop_lon": 16.94713147,
        "zone_id": "A",
        "stop_code": null
    },
    {
        "stop_id": "2538",
        "stop_name": "Swarzędz/Okrężna",
        "stop_lat": 52.396985,
        "stop_lon": 17.077554,
        "zone_id": "B",
        "stop_code": null
    },
    {
        "stop_id": "2640",
        "stop_name": "Błażejewko/Pętla",
        "stop_lat": 52.1992748,
        "stop_lon": 17.10764374,
        "zone_id": "C",
        "stop_code": null
    },
    {
        "stop_id": "962",
        "stop_name": "Komorniki/Os. Parkowe",
        "stop_lat": 52.3370807291,
        "stop_lon": 16.8291873717,
        "zone_id": "B",
        "stop_code": null
    },
    {
        "stop_id": "2180",
        "stop_name": "Bolechowo-Os./Wojska Polskiego",
        "stop_lat": 52.54171042,
        "stop_lon": 16.97246159,
        "zone_id": "C",
        "stop_code": null
    },
    {
        "stop_id": "1155",
        "stop_name": "Rynek Wschodni",
        "stop_lat": 52.42093995,
        "stop_lon": 16.96986062,
        "zone_id": "A",
        "stop_code": null
    },
    {
        "stop_id": "887",
        "stop_name": "Puszczykowo/Rondo Heigelmanna",
        "stop_lat": 52.28122814,
        "stop_lon": 16.85121043,
        "zone_id": "C",
        "stop_code": null
    },
    {
        "stop_id": "2912",
        "stop_name": "Szwedzka",
        "stop_lat": 52.3820321731,
        "stop_lon": 16.9911811451,
        "zone_id": "A",
        "stop_code": null
    },
    {
        "stop_id": "4107",
        "stop_name": "Oświęcimska",
        "stop_lat": 52.3544084564,
        "stop_lon": 16.9371094328,
        "zone_id": "A",
        "stop_code": null
    },
    {
        "stop_id": "170",
        "stop_name": "Łąkowa",
        "stop_lat": 52.40206,
        "stop_lon": 16.93429,
        "zone_id": "A",
        "stop_code": null
    },
    {
        "stop_id": "3841",
        "stop_name": "Rondo Żegrze",
        "stop_lat": 52.37708,
        "stop_lon": 16.95659,
        "zone_id": "A",
        "stop_code": null
    },
    {
        "stop_id": "2221",
        "stop_name": "Koziegłowy/Lipowa",
        "stop_lat": 52.45554969,
        "stop_lon": 16.98449632,
        "zone_id": "B",
        "stop_code": null
    },
    {
        "stop_id": "3865",
        "stop_name": "Franowo",
        "stop_lat": 52.38156,
        "stop_lon": 17.00007,
        "zone_id": "A",
        "stop_code": null
    },
    {
        "stop_id": "2131",
        "stop_name": "Szczytniki/Sarnia",
        "stop_lat": 52.299468,
        "stop_lon": 17.011333,
        "zone_id": "B",
        "stop_code": null
    },
    {
        "stop_id": "283",
        "stop_name": "Złotniki/Łagiewnicka",
        "stop_lat": 52.49215886,
        "stop_lon": 16.84606965,
        "zone_id": "B",
        "stop_code": null
    },
    {
        "stop_id": "2540",
        "stop_name": "Swarzędz/Pogodna/Kórnicka",
        "stop_lat": 52.39957,
        "stop_lon": 17.077922,
        "zone_id": "B",
        "stop_code": null
    },
    {
        "stop_id": "216",
        "stop_name": "Piaśnicka/Kurlandzka",
        "stop_lat": 52.385231585,
        "stop_lon": 16.987196603,
        "zone_id": "A",
        "stop_code": null
    },
    {
        "stop_id": "2325",
        "stop_name": "Śródka/Skrzyżowanie",
        "stop_lat": 52.29986665,
        "stop_lon": 17.12297159,
        "zone_id": "B",
        "stop_code": null
    },
    {
        "stop_id": "1201",
        "stop_name": "Koziegłowy/Os. Karolin",
        "stop_lat": 52.4437083867,
        "stop_lon": 16.9899562673,
        "zone_id": "B",
        "stop_code": null
    },
    {
        "stop_id": "2639",
        "stop_name": "Błażejewko/Działkowa",
        "stop_lat": 52.20439708,
        "stop_lon": 17.10347091,
        "zone_id": "C",
        "stop_code": null
    },
    {
        "stop_id": "785",
        "stop_name": "Uniwersytet Przyrodniczy",
        "stop_lat": 52.42614425,
        "stop_lon": 16.90496618,
        "zone_id": "A",
        "stop_code": null
    },
    {
        "stop_id": "1537",
        "stop_name": "Jarosławska",
        "stop_lat": 52.34339022,
        "stop_lon": 16.98542036,
        "zone_id": "A",
        "stop_code": null
    },
    {
        "stop_id": "2409",
        "stop_name": "Jaryszki/Działki",
        "stop_lat": 52.3337244446,
        "stop_lon": 17.0190434248,
        "zone_id": "B",
        "stop_code": null
    },
    {
        "stop_id": "2311",
        "stop_name": "Lipowiec/",
        "stop_lat": 52.31866344,
        "stop_lon": 17.18342575,
        "zone_id": "B",
        "stop_code": null
    },
    {
        "stop_id": "2674",
        "stop_name": "Szczodrzykowo/Kórnik PKM",
        "stop_lat": 52.2807487,
        "stop_lon": 17.10434871,
        "zone_id": "C",
        "stop_code": null
    },